Restaurant ID,Restaurant Name,City,Cuisines,Average Cost for two,Price range,Aggregate rating,Votes,Latitude,Longitude,CostBucket,Rating
6317637,Le Petit Souffle,Makati City,french,1100,3,4.8,314,14.565443,121.027535,high,4.8
6304287,Izakaya Kikufuji,Makati City,japanese,1200,3,4.5,591,14.553708,121.014101,high,4.5
6300002,Heat - Edsa Shangri-La,Mandaluyong City,seafood,4000,4,4.4,270,14.581404,121.056831,high,4.4
6318506,Ooma,Mandaluyong City,japanese,1500,4,4.9,365,14.585318,121.056475,high,4.9
6314302,Sambo Kojin,Mandaluyong City,japanese,1500,4,4.8,229,14.58445,121.057508,high,4.8
18189371,Din Tai Fung,Mandaluyong City,chinese,1000,3,4.4,336,14.583764,121.056314,high,4.4
6300781,Buffet 101,Pasay City,asian,2000,4,4.0,520,14.53133333,120.9796667,high,4.0
6301290,Vikings,Pasay City,seafood,2000,4,4.2,677,14.54,120.9793333,high,4.2
6300010,Spiral - Sofitel Philippine Plaza Manila,Pasay City,european,6000,4,4.9,621,14.55299,120.98009,high,4.9
6314987,Locavore,Pasig City,filipino,1100,3,4.8,532,14.572041,121.056532,high,4.8
6309903,Silantro Fil-Mex,Pasig City,filipino,800,3,4.9,1070,14.567689,121.057916,high,4.9
6309455,Mad Mark's Creamery & Good Eats,Pasig City,american,900,3,4.2,488,14.570849,121.06082,high,4.2
6318433,Silantro Fil-Mex,Quezon City,filipino,800,3,4.8,294,14.649503,121.075419,high,4.8
6310470,Guevarra's,San Juan City,filipino,1000,3,4.2,458,14.59345,121.0335917,high,4.2
6314605,Sodam Korean Restaurant,San Juan City,korean,700,3,4.3,223,14.59889,121.03811,medium,4.3
18185059,Cafe Arabelle,Santa Rosa,cafe,800,3,3.6,29,14.237082,121.05704,high,3.6
18182702,Nonna's Pasta & Pizzeria,Santa Rosa,italian,850,3,4.0,72,14.23767897,121.0565874,high,4.0
6318213,Balay Dako,Tagaytay City,filipino,1200,3,4.5,211,14.101834,120.951589,high,4.5
18255654,Hobing Korean Dessert Cafe,Taguig City,cafe,600,2,4.5,118,14.55436,121.045878,medium,4.5
6308205,Wildflour Cafe + Bakery,Taguig City,cafe,1500,4,4.4,392,14.549337,121.04622,high,4.4
6315438,NIU by Vikings,Taguig City,seafood,3000,4,4.7,535,14.545858,121.053725,high,4.7
6310406,The Food Hall by Todd English,Taguig City,american,1800,4,4.5,618,14.54565535,121.0534998,high,4.5
6600681,Chez Michou,Brasí_lia,fast food,55,2,3.0,6,-15.76414167,-47.88178889,low,3.0
6601005,Cafí© Daniel Briand,Brasí_lia,cafe,30,1,3.8,9,-15.7775,-47.88266667,low,3.8
6600292,Casa do Biscoito Mineiro,Brasí_lia,bakery,45,2,3.7,11,-15.75747222,-47.88213611,low,3.7
6600441,Maori,Brasí_lia,brazilian,60,3,3.8,11,-15.75883333,-47.88816667,low,3.8
6600970,Pizza íæ Bessa,Brasí_lia,pizza,50,2,3.2,11,-15.83116667,-47.91566667,low,3.2
6600379,Sushi Loko,Brasí_lia,japanese,80,3,3.1,10,-15.831,-47.91566667,low,3.1
6600214,Beirute,Brasí_lia,arabian,90,3,3.7,8,-15.82,-47.9075,low,3.7
6601218,New Koto,Brasí_lia,japanese,200,4,3.7,5,-15.82733333,-47.91016667,low,3.7
6600060,Sandubas Cafí©,Brasí_lia,brazilian,30,1,0.0,2,-15.797,-47.89016667,low,0.0
6600083,Villa Tevere,Brasí_lia,italian,150,4,4.1,12,-15.83133333,-47.92366667,low,4.1
6601515,Rovereto,Brasí_lia,pizza,100,4,3.1,9,-15.83716667,-48.019,low,3.1
6601361,Buena Carne,Brasí_lia,bar food,60,3,3.6,9,-15.839775,-48.01909167,low,3.6
6601602,Taco Pep,Brasí_lia,mexican,100,4,4.3,29,-15.83483333,-48.01666667,low,4.3
6601589,Coco Bambu,Brasí_lia,international,230,4,4.2,17,-15.7865,-47.889,low,4.2
6601862,Taypíç,Brasí_lia,peruvian,100,4,3.6,5,-15.860621,-47.872359,low,3.6
6601595,Outback Steakhouse,Brasí_lia,american,150,4,4.0,10,-15.83451389,-47.95628333,low,4.0
6601158,Manzuíç,Brasí_lia,seafood,240,4,3.2,6,-15.82566667,-47.87283333,low,3.2
6600427,Coco Bambu,Brasí_lia,international,230,4,4.9,30,-15.819,-47.8685,low,4.9
6600116,Gero,Brasí_lia,italian,350,4,3.3,8,-15.720118,-47.885812,medium,3.3
6601457,Brazilian American Burgers,Brasí_lia,american,50,2,3.6,9,-15.79753056,-47.92102778,low,3.6
7303219,Pesqueiro Eco Gourmet,Rio de Janeiro,seafood,140,4,4.0,7,-23.0115,-43.377,low,4.0
7304307,Confeitaria Colombo,Rio de Janeiro,desserts,100,4,4.8,29,-22.905293,-43.178826,low,4.8
7301215,Bibi,Rio de Janeiro,juices,60,3,4.7,24,-22.97207222,-43.18669167,low,4.7
7300596,Cervantes,Rio de Janeiro,beverages,90,3,4.5,29,-22.96216667,-43.17583333,low,4.5
7300612,Amir,Rio de Janeiro,lebanese,170,4,4.2,11,-22.96516667,-43.176,low,4.2
7300704,TT Burger,Rio de Janeiro,burger,60,3,4.8,19,-22.98683333,-43.191,low,4.8
7300955,Braseiro da Gíçvea,Rio de Janeiro,brazilian,100,4,4.9,40,-22.973507,-43.227042,low,4.9
7300521,Balada Mix,Rio de Janeiro,brazilian,90,3,4.6,21,-22.98520833,-43.211425,low,4.6
7300515,Garota de Ipanema,Rio de Janeiro,brazilian,120,4,4.9,49,-22.98533333,-43.203,low,4.9
7300483,Zazíç BistríÇ Tropical,Rio de Janeiro,brazilian,170,4,4.6,21,-22.98531944,-43.20520833,low,4.6
7301064,Filí© de Ouro,Rio de Janeiro,brazilian,90,3,4.3,14,-22.966647,-43.219563,low,4.3
7304312,D.O.C Ristorante,Rio de Janeiro,italian,150,4,4.0,5,-22.99991111,-43.34879167,low,4.0
7300004,Sushi Leblon,Rio de Janeiro,japanese,250,4,4.6,25,-22.98416667,-43.227,low,4.6
7300868,Talho Capixaba,Rio de Janeiro,bakery,120,4,4.4,13,-22.98516667,-43.22566667,low,4.4
7302637,Leme Light,Rio de Janeiro,brazilian,40,2,4.2,7,-22.963925,-43.17279167,low,4.2
7302140,Shirley,Rio de Janeiro,brazilian,250,4,4.2,8,-22.96337222,-43.17126389,low,4.2
7305048,Quiosque Chopp Brahma,Rio de Janeiro,bar food,70,3,0.0,1,-22.870413,-43.341164,low,0.0
7302898,Aprazí_vel,Rio de Janeiro,brazilian,300,4,4.7,44,-22.92481389,-43.18736944,low,4.7
7302859,Aconchego Carioca,Rio de Janeiro,brazilian,85,3,4.6,24,-22.91370833,-43.21551111,low,4.6
7301700,Garota de Ipanema,Rio de Janeiro,brazilian,80,3,4.3,10,-22.94783333,-43.16266667,low,4.3
6706313,Cantina Famiglia Mancini,Sí£o Paulo,italian,250,4,4.5,49,-23.55066667,-46.64516667,low,4.5
6704326,Templo da Carne - Marcos Bassi,Sí£o Paulo,steak,250,4,4.4,17,-23.559,-46.64633333,low,4.4
6711179,Gopala Hari,Sí£o Paulo,indian,70,3,3.1,5,-23.55616667,-46.65866667,low,3.1
6702797,Jiquitaia,Sí£o Paulo,brazilian,100,4,4.1,15,-23.55671,-46.657523,low,4.1
6700475,Skye - Hotel Unique,Sí£o Paulo,beverages,300,4,4.8,59,-23.581688,-46.666851,low,4.8
6713413,Les 3 Brasseurs,Sí£o Paulo,french,120,4,4.6,30,-23.582135,-46.67511,low,4.6
6714340,Red Steak & Burger,Sí£o Paulo,brazilian,75,3,3.9,5,-23.585324,-46.683888,low,3.9
6710645,Cantinho da Gula,Sí£o Paulo,brazilian,55,2,0.0,0,-23.581,-46.67566667,low,0.0
6700402,Paris 6 Classique,Sí£o Paulo,french,200,4,3.4,73,-23.561568,-46.666041,low,3.4
6700846,Kawa Sushi,Sí£o Paulo,sushi,120,4,3.5,9,-23.571638,-46.657418,low,3.5
6702159,A Figueira Rubaiyat,Sí£o Paulo,bbq,300,4,4.3,39,-23.5655,-46.66983333,low,4.3
6711666,Kinoshita,Sí£o Paulo,sushi,230,4,3.9,12,-23.59233333,-46.67133333,low,3.9
6701257,Meats,Sí£o Paulo,gourmet fast food,120,4,4.3,68,-23.56483333,-46.68133333,low,4.3
6706211,Paribar,Sí£o Paulo,brazilian,150,4,4.3,46,-23.54664167,-46.64159444,low,4.3
6705858,Terraí_o Itíçlia,Sí£o Paulo,italian,400,4,4.4,37,-23.545163,-46.643425,medium,4.4
6701419,Divino Fogí£o,Sí£o Paulo,brazilian,65,3,0.0,2,-23.5995,-46.63716667,low,0.0
6703956,Super Grill,Sí£o Paulo,brazilian,50,2,0.0,2,-23.622925,-46.698574,low,0.0
6709580,Esquina Mocotí_,Sí£o Paulo,brazilian,100,4,4.4,22,-23.486535,-46.581672,low,4.4
6703176,Veloso,Sí£o Paulo,brazilian,70,3,4.6,58,-23.58516667,-46.63566667,low,4.6
6713772,Sainte Marie Gastronomia,Sí£o Paulo,lebanese,120,4,4.1,11,-23.609207,-46.746958,low,4.1
17284404,Austin's BBQ and Oyster Bar,Albany,bbq,25,2,3.3,35,31.610387,-84.221535,low,3.3
17284203,BJ's Country Buffet,Albany,american,10,1,3.3,25,31.608743,-84.207095,low,3.3
17284302,El Vaquero Mexican Restaurant,Albany,mexican,0,1,3.4,45,31.6158,-84.2194,low,3.4
17284397,Elements Coffee Co - Northwest,Albany,coffee and tea,10,1,3.4,26,31.622412,-84.206944,low,3.4
17284094,Chick-fil-A,Albany,fast food,10,1,3.5,67,31.616,-84.2193,low,3.5
17284409,Guang Zhou Chinese Restaurant,Albany,asian,10,1,3.9,141,31.6155186,-84.2091458,low,3.9
17284139,Harvest Moon,Albany,pizza,25,2,3.7,147,31.604905,-84.205718,low,3.7
17284403,Henry Campbell's Steakhouse,Albany,steak,70,4,3.5,51,31.612121,-84.223278,low,3.5
17284145,Hong Kong Cafe,Albany,chinese,25,2,3.6,88,31.6156,-84.2191,low,3.6
17284150,House of China Restaurant II,Albany,chinese,10,1,3.8,153,31.6104,-84.212,low,3.8
17284175,Locos Grill & Pub,Albany,american,25,2,3.5,57,31.6077,-84.2228,low,3.5
17284179,Longhorn Steakhouse,Albany,american,25,2,3.5,58,31.6185,-84.2229,low,3.5
17284197,Mikata Japanese Steakhouse,Albany,japanese,40,3,3.6,115,31.6137,-84.2164,low,3.6
17284241,Shogun Japanese Steak House,Albany,japanese,40,3,3.5,51,31.6118,-84.2233,low,3.5
17284390,The Catch Seafood Room & Oyster Bar,Albany,seafood,40,3,3.8,250,31.605882,-84.205025,low,3.8
17284279,Villa Gargano,Albany,italian,10,1,3.7,117,31.5985,-84.1757,low,3.7
17284364,3 Squares Diner,Albany,american,10,1,3.4,20,31.5308,-83.8389,low,3.4
16611114,Whitebull Hotel,Armidale,bar food,20,2,3.5,25,-30.5147169,151.6688792,low,3.5
17293281,Last Resort Grill,Athens,american,40,3,4.5,1821,33.957999,-83.378273,low,4.5
17293301,Mama's Boy Restaurant,Athens,southern,10,1,4.5,849,33.9535,-83.3654,low,4.5
17293409,Sr. Sol 1,Athens,mexican,10,1,4.6,917,33.9652,-83.4293,low,4.6
17293163,Choo Choo Eastside,Athens,japanese,10,1,3.9,439,33.9259,-83.3389,low,3.9
17293228,The Grill,Athens,breakfast,10,1,3.7,289,33.958198,-83.375523,low,3.7
17293880,Big City Bread Cafe,Athens,breakfast,10,1,4.3,558,33.959392,-83.384004,low,4.3
17293169,Clocked,Athens,american,10,1,4.2,613,33.9584,-83.3797,low,4.2
17293186,DePalma's Italian Cafe - Downtown,Athens,american,25,2,4.0,353,33.958112,-83.373596,low,4.0
17293180,DePalma's Italian Cafe - East Side,Athens,american,25,2,4.1,387,33.924275,-83.33995,low,4.1
17293205,Five & Ten,Athens,american,40,3,4.3,755,33.9415545,-83.3872482,low,4.3
17293229,Grit,Athens,international,10,1,4.2,800,33.960112,-83.381625,low,4.2
17293897,Ike & Jane,Athens,sandwich,10,1,4.1,350,33.963296,-83.400887,low,4.1
17293273,La Dolce Vita Ristorante,Athens,italian,40,3,4.1,464,33.9584,-83.4075,low,4.1
17293870,Shokitini,Athens,asian,25,2,4.2,550,33.957503,-83.379251,low,4.2
17293877,Taqueria Del Sol,Athens,mexican,10,1,4.1,543,33.960571,-83.383605,low,4.1
17293890,The National,Athens,international,40,3,4.1,465,33.959468,-83.37967,low,4.1
17293915,The Royal Peasant,Athens,bar food,10,1,4.4,546,33.937502,-83.38728,low,4.4
17293422,Transmetropolitan,Athens,italian,10,1,4.4,1098,33.9584,-83.3764,low,4.4
17293873,Trappeze Pub,Athens,burger,25,2,4.2,579,33.958363,-83.378881,low,4.2
17294014,Viva! Argentine Cuisine,Athens,desserts,10,1,4.1,374,33.9600227,-83.3828224,low,4.1
17294556,Miyabi Kyoto Japanese Steak House,Augusta,chinese,40,3,4.6,717,33.4721,-82.0865,low,4.6
17294607,Rae's Coastal Cafe,Augusta,american,40,3,4.9,548,33.4791,-82.0698,low,4.9
17294279,The Bee's Knees,Augusta,international,25,2,4.5,631,33.4765,-81.97,low,4.5
17294300,Boll Weevil Cafe,Augusta,desserts,10,1,3.9,372,33.474,-81.9684,low,3.9
17295215,Farmhaus Burger,Augusta,american,25,2,3.9,201,33.477444,-81.973006,low,3.9
17295028,Manuel's Bread Cafe,Augusta,breakfast,40,3,3.8,332,33.481779,-81.965571,low,3.8
17294642,Sconyers Bar B Que,Augusta,bbq,25,2,3.5,304,33.4086,-82.0327,low,3.5
17295109,Frog Hollow Tavern,Augusta,american,40,3,4.3,368,33.478231,-81.974944,low,4.3
17294441,Giuseppe's Pizza & Italian Specialities,Augusta,desserts,25,2,4.1,430,33.4827,-82.096,low,4.1
17294552,Mellow Mushroom,Augusta,italian,25,2,4.4,433,33.4778,-81.9721,low,4.4
17294565,Nacho Mamas Burritos,Augusta,mexican,10,1,4.0,380,33.4764,-81.9694,low,4.0
17294623,Rhinehart's Oyster Bar,Augusta,bar food,25,2,4.0,456,33.5133,-82.0505,low,4.0
17294712,Takosushi,Augusta,mexican,40,3,4.2,647,33.4848,-82.0301,low,4.2
17295033,The Chop House,Augusta,steak,40,3,4.0,360,33.467201,-82.080788,low,4.0
17295069,The Taj of India,Augusta,indian,25,2,4.0,227,33.5375868,-82.0805493,low,4.0
17294261,Augsburg Haus,Augusta,german,25,2,3.9,290,33.544342,-82.143793,low,3.9
17295115,Pho Bac,Augusta,vietnamese,10,1,4.1,270,33.532249,-82.126161,low,4.1
17294836,Rhinehart's Oyster Bar,Augusta,burger,25,2,4.0,326,33.521291,-82.141284,low,4.0
17294850,Thai Kitchen,Augusta,thai,35,3,4.3,317,33.5406,-82.1328,low,4.3
17294883,El Kiosco Mexican Restaurant,Augusta,mexican,10,1,4.2,300,33.4574,-82.1997,low,4.2
16608864,Taste of Balingup,Balingup,modern australian,20,2,3.2,21,-33.7845269,115.9844924,low,3.2
16604911,Bridge Road Brewers,Beechworth,pizza,20,2,4.6,237,-36.360439,146.685852,low,4.6
17303465,Bardenay,Boise,american,25,2,4.5,879,43.6138,-116.2019,low,4.5
17303642,Flatbread Neapolitan Pizzeria,Boise,italian,25,2,4.6,615,43.616068,-116.203466,low,4.6
17303670,Goldy's Breakfast Bistro,Boise,breakfast,25,2,4.5,879,43.6149,-116.2023,low,4.5
17303545,Chandlers Steakhouse,Boise,american,70,4,3.9,379,43.6157,-116.2064,low,3.9
17303655,Bar Gernika Basque Pub & Eatery,Boise,european,10,1,4.3,303,43.614,-116.2031,low,4.3
17304691,Barbacoa Restaurant,Boise,latin american,70,4,4.1,538,43.597235,-116.185034,low,4.1
17303478,Big Jud's,Boise,american,10,1,4.2,334,43.5945,-116.2062,low,4.2
17303480,Bittercreek Ale House,Boise,american,25,2,4.3,555,43.6167,-116.2022,low,4.3
17304733,Boise Fry Company,Boise,american,10,1,4.4,823,43.610279,-116.193409,low,4.4
17303646,Flying Pie Pizzaria,Boise,pizza,25,2,4.1,550,43.6192,-116.2625,low,4.1
17304929,Fork,Boise,american,25,2,4.4,650,43.616295,-116.202845,low,4.4
17303684,Guido's Original New York Style Pizza,Boise,pizza,10,1,4.3,410,43.615,-116.199,low,4.3
17303772,Los Beto's,Boise,mexican,10,1,4.4,660,43.6191,-116.2463,low,4.4
17305123,Lucianos Italian Restaurant,Boise,italian,25,2,4.4,360,43.6051379,-116.245165,low,4.4
17303787,Mai Thai Restaurant,Boise,sushi,40,3,4.0,340,43.6162,-116.2021,low,4.0
17303990,Shige Japanese Cuisine,Boise,japanese,25,2,4.1,393,43.6156,-116.2031,low,4.1
17304741,The Egg Factory,Boise,breakfast,10,1,4.3,422,43.619274,-116.281809,low,4.3
17304726,Tucanos,Boise,brazilian,40,3,4.0,435,43.591706,-116.280614,low,4.0
17304486,Texas Roadhouse,Boise,american,25,2,4.0,369,43.619108,-116.347304,low,4.0
17304533,Brick 29,Boise,american,40,3,4.4,487,43.5777,-116.5629,low,4.4
17316233,Winifreds,Cedar Rapids/Iowa City,american,40,3,3.7,98,42.0179,-91.6336,low,3.7
17315883,Biaggi's Ristorante Italiano,Cedar Rapids/Iowa City,italian,40,3,4.1,365,42.0281,-91.6327,low,4.1
17315995,El Super Burrito,Cedar Rapids/Iowa City,mexican,10,1,4.1,190,41.9748,-91.7148,low,4.1
17316018,Granite City Food & Brewery,Cedar Rapids/Iowa City,american,40,3,4.1,429,42.0249,-91.6224,low,4.1
17316038,Irish Democrat,Cedar Rapids/Iowa City,american,25,2,4.4,430,42.01,-91.6347,low,4.4
17316771,Taste of India,Cedar Rapids/Iowa City,indian,25,2,4.2,186,42.0215347,-91.6499622,low,4.2
17316201,Thai Moon Restaurant,Cedar Rapids/Iowa City,chinese,10,1,4.2,220,41.9639,-91.7266,low,4.2
17316208,Ting's Red Lantern,Cedar Rapids/Iowa City,chinese,10,1,4.2,347,42.0468,-91.6394,low,4.2
17316389,Monica's,Cedar Rapids/Iowa City,american,25,2,3.8,161,41.670466,-91.569767,low,3.8
17316278,Exotic India,Cedar Rapids/Iowa City,indian,25,2,4.1,160,41.6685,-91.5687,low,4.1
17316744,Shorts Burger and Shine,Cedar Rapids/Iowa City,burger,10,1,4.9,820,41.660982,-91.534424,low,4.9
17316751,The Hamburg Inn No. 2 Inc.,Cedar Rapids/Iowa City,american,10,1,4.5,488,41.663849,-91.531414,low,4.5
17316766,Bluebird Diner,Cedar Rapids/Iowa City,breakfast,25,2,3.6,253,41.663751,-91.531093,low,3.6
17316743,Graze,Cedar Rapids/Iowa City,american,40,3,3.8,220,41.658691,-91.534302,low,3.8
17316374,A & A Pagliai's Pizza,Cedar Rapids/Iowa City,pizza,25,2,4.3,485,41.6648,-91.5314,low,4.3
17316381,Atlas World Grill,Cedar Rapids/Iowa City,international,40,3,4.3,428,41.661,-91.5341,low,4.3
17316802,BlackStone,Cedar Rapids/Iowa City,american,25,2,4.1,294,41.667742,-91.482165,low,4.1
17316416,Devotay,Cedar Rapids/Iowa City,mediterranean,40,3,4.0,380,41.6625,-91.5318,low,4.0
17316449,Jimmy Jack's Rib Shack,Cedar Rapids/Iowa City,bbq,25,2,4.2,259,41.6428,-91.5074,low,4.2
17316603,Zoeys Pizzeria,Cedar Rapids/Iowa City,pizza,25,2,4.7,433,42.0331,-91.5995,low,4.7
16659169,Tokyo Sushi,Chatham-Kent,japanese,25,2,3.7,176,42.397683,-82.188438,low,3.7
17558684,Berry Patch Restaurant,Clatskanie,american,10,1,4.3,96,46.126967,-123.368151,low,4.3
18366580,Sakura Sushi & Grill,Cochrane,asian,25,2,3.1,6,51.183934,-114.472474,low,3.1
17330755,Uptown Vietnam cuisine,Columbus,asian,10,1,3.3,33,32.470315,-84.992671,low,3.3
17330611,Cafe Le Rue @ The Landings,Columbus,american,25,2,4.6,489,32.519247,-84.95591,low,4.6
17330609,Mark's City Grille,Columbus,american,25,2,4.5,345,32.555591,-84.927047,low,4.5
17330024,B Merrell's,Columbus,burger,25,2,3.8,149,32.5577,-84.9436,low,3.8
17330074,Cannon Brewpub,Columbus,pizza,25,2,3.9,330,32.4656,-84.9936,low,3.9
17330185,Fuji Japanese Steak House,Columbus,japanese,40,3,3.9,247,32.5382197,-84.954984,low,3.9
17330397,Ruth Ann's Family Restaurant,Columbus,breakfast,10,1,3.7,123,32.4637,-84.9876,low,3.7
17330735,Samurai Japanese Cuisine & Sushi Bar,Columbus,japanese,40,3,3.6,109,32.4652417,-84.9933631,low,3.6
17330676,Wasabi Sushi and Thai,Columbus,japanese,40,3,3.7,134,32.534002,-84.96661,low,3.7
17330048,Buckhead Bar and Grill,Columbus,seafood,40,3,4.2,722,32.513154,-84.95367,low,4.2
17330604,Burt's Butcher Shoppe and Eatery,Columbus,steak,25,2,4.3,213,32.504657,-84.947569,low,4.3
17330087,Chef Lee's Peking Restaurant,Columbus,chinese,25,2,4.0,335,32.5393,-84.9607,low,4.0
17330137,Country's Barbecue,Columbus,bbq,25,2,4.0,353,32.4792,-84.9464,low,4.0
17330155,Deorio's,Columbus,italian,0,1,4.0,170,32.481,-84.9427,low,4.0
17330309,Mellow Mushroom,Columbus,pizza,25,2,4.1,192,32.5321,-84.9557,low,4.1
17330311,Meritage,Columbus,american,40,3,4.1,302,32.466158,-84.992093,low,4.1
17330615,Mongo The Mongolian Fire Pit,Columbus,asian,10,1,4.2,355,32.560905,-84.938698,low,4.2
17330638,The Black Cow,Columbus,american,25,2,4.3,287,32.468757,-84.991384,low,4.3
17330628,Wood Stone,Columbus,italian,40,3,4.0,264,32.527217,-84.963201,low,4.0
17330546,Hunter's Pub,Columbus,american,40,3,4.4,235,32.7455,-85.0213,low,4.4
16643459,Consort Restaurant,Consort,chinese,25,2,3.0,6,52.0082889,-110.7746994,low,3.0
17334434,Thatcher's Barbeque and Grill,Dalton,american,25,2,3.7,38,34.5251331,-84.9396931,low,3.7
17334348,Christian and Jake's Bistro,Dalton,desserts,10,1,4.4,122,34.474635,-84.926258,low,4.4
17334213,Dub's High on the Hog,Dalton,bbq,25,2,4.4,207,34.4972488,-84.9523921,low,4.4
17334355,Sierra's Mexican Restaurant,Dalton,mexican,10,1,3.9,66,34.752476,-84.767911,low,3.9
17334212,Oakwood Cafe,Dalton,bbq,10,1,4.9,249,34.769686,-84.969393,low,4.9
17333797,Chili's Grill & Bar,Dalton,american,25,2,3.8,63,34.7643,-85.0039,low,3.8
17334217,Fuji Japanese Steakhouse,Dalton,japanese,40,3,3.8,145,34.759551,-84.992342,low,3.8
17334273,Las Palmas,Dalton,mexican,10,1,3.8,83,34.759665,-84.992924,low,3.8
17334254,Tony's Italian Restaurant & Pizza,Dalton,italian,25,2,3.7,116,34.758645,-84.999678,low,3.7
17333836,Filling Station,Dalton,american,10,1,4.1,122,34.7742,-84.9678,low,4.1
17334197,Five Guys Burgers and Fries,Dalton,fast food,10,1,4.1,142,34.759273,-84.990925,low,4.1
17333882,Los Pablos,Dalton,mexican,10,1,4.1,114,34.7604,-84.9964,low,4.1
17334211,Kobe Hibachi & Sushi,Dalton,american,25,2,4.6,214,34.9428786,-85.2229101,low,4.6
17334390,Soho Hibachi,Dalton,japanese,10,1,4.3,116,34.9528157,-85.246237,low,4.3
17334034,Thai Garden,Dalton,thai,25,2,4.2,111,34.9546,-85.2545,low,4.2
17334414,Southern Bliss Bakery,Dalton,desserts,10,1,3.7,25,34.705093,-85.294955,low,3.7
17334082,Bailey's Bar-B-Que,Dalton,bbq,10,1,4.1,128,34.9273,-85.1321,low,4.1
17334364,Farm To Fork,Dalton,american,10,1,4.3,244,34.912109,-85.130492,low,4.3
17334398,Home Plate Grill,Dalton,american,10,1,4.2,112,34.9151853,-85.1079396,low,4.2
17334219,Pie Slingers Pizzeria,Dalton,italian,10,1,4.1,144,34.851907,-85.249727,low,4.1
17335173,Olive Tree Cafe,Davenport,indian,25,2,4.6,166,41.574935,-90.496986,low,4.6
17335195,"Red Ginger Sushi, Grill & Bar",Davenport,sushi,40,3,4.5,208,41.53845,-90.522479,low,4.5
17335225,Crust Stone Oven Pizza,Davenport,burger,25,2,3.9,136,41.5747801,-90.4912446,low,3.9
17335219,Jimmy's Pancake House,Davenport,american,10,1,4.0,85,41.548746,-90.504176,low,4.0
17334965,Trattoria Tiramisu,Davenport,italian,25,2,4.1,117,41.525384,-90.50709,low,4.1
17335189,Prairie Grille at SteepleGate Inn,Davenport,american,25,2,3.4,53,41.593892,-90.574088,low,3.4
17335156,Tantra Asian Bistro,Davenport,asian,25,2,4.9,474,41.574459,-90.565837,low,4.9
17334717,Chick-fil-A,Davenport,fast food,10,1,3.9,125,41.5604,-90.5716,low,3.9
17334752,Duck City Bistro,Davenport,american,70,4,3.7,201,41.5223,-90.5737,low,3.7
18453427,Frick's Tap,Davenport,american,25,2,0.0,2,41.52253634,-90.59466452,low,0.0
17793744,Los Agaves,Davenport,mexican,25,2,0.0,3,41.5709434,-90.5154313,low,0.0
17334679,Azteca,Davenport,mexican,0,1,4.3,167,41.5699,-90.5683,low,4.3
17334718,China Cafe,Davenport,chinese,25,2,4.0,112,41.5749,-90.5321,low,4.0
17334763,Exotic Thai Restaurant,Davenport,thai,25,2,4.1,256,41.5747,-90.5432,low,4.1
17335158,Front Street Brewery,Davenport,american,10,1,4.3,123,41.520389,-90.572418,low,4.3
17334782,Granite City Food & Brewery,Davenport,american,25,2,4.0,199,41.5745,-90.5137,low,4.0
17334846,Los Agaves,Davenport,mexican,25,2,4.1,157,41.559,-90.5686,low,4.1
17334853,Machine Shed Restaurant,Davenport,american,25,2,4.1,100,41.5944,-90.6136,low,4.1
17335168,Osaka,Davenport,japanese,40,3,4.2,141,41.570997,-90.515175,low,4.2
17334958,Texas Roadhouse,Davenport,american,25,2,4.2,197,41.5747,-90.517,low,4.2
17258496,Hickory Park,Des Moines,bbq,25,2,4.5,1025,42.010254,-93.610084,low,4.5
17259395,The Cafe,Des Moines,american,25,2,4.9,570,42.048779,-93.643094,low,4.9
17258350,Flying Mango,Des Moines,bbq,40,3,4.5,674,41.614965,-93.677638,low,4.5
17258136,Cool Basil,Des Moines,asian,25,2,4.1,496,41.600564,-93.739573,low,4.1
17258522,HuHot Mongolian Grill,Des Moines,asian,25,2,4.0,411,41.60028,-93.760027,low,4.0
17259958,Malo,Des Moines,latin american,25,2,3.2,113,41.583309,-93.627896,low,3.2
17258036,Centro,Des Moines,italian,40,3,4.5,1109,41.5857431,-93.6300803,low,4.5
17259368,Fong's Pizza,Des Moines,chinese,25,2,4.6,728,41.585465,-93.621631,low,4.6
17257684,A Dong Restaurant,Des Moines,asian,10,1,4.4,659,41.587219,-93.637401,low,4.4
17258154,Court Avenue Brewing Company,Des Moines,american,40,3,4.2,370,41.58536,-93.620726,low,4.2
17259340,Django,Des Moines,french,40,3,4.3,532,41.584027,-93.629436,low,4.3
17259243,Miyabi 9,Des Moines,japanese,25,2,4.8,860,41.590819,-93.611366,low,4.8
17259625,Zombie Burger + Drink Lab,Des Moines,burger,10,1,4.2,943,41.590106,-93.61474,low,4.2
17259169,Tursi's Latin King,Des Moines,american,70,4,4.1,476,41.601415,-93.577383,low,4.1
17259166,Tsing Tsao South,Des Moines,chinese,10,1,4.1,218,41.545869,-93.645245,low,4.1
17259335,Bandit Burrito,Des Moines,breakfast,10,1,4.0,214,41.6714654,-93.6976773,low,4.0
17259248,Jethro's BBQ,Des Moines,american,25,2,4.3,699,41.603901,-93.659797,low,4.3
17258552,The Machine Shed Restaurant,Des Moines,american,25,2,3.8,308,41.615083,-93.772033,low,3.8
17259550,Mi Patria,Des Moines,latin american,25,2,4.0,157,41.594039,-93.73624,low,4.0
17259200,Waterfront Seafood Market,Des Moines,seafood,40,3,4.2,530,41.5991771,-93.7441981,low,4.2
16615894,The Giggling Goat,Dicky Beach,coffee and tea,7,1,3.6,29,-26.783576,153.137401,low,3.6
17342816,Burnt Toast Cafe,Dubuque,breakfast,10,1,3.4,33,42.504759,-90.667668,low,3.4
17342498,Catfish Charlie's,Dubuque,seafood,25,2,3.3,40,42.5124724,-90.6499328,low,3.3
17342648,Salsa's Mexican Restaurant,Dubuque,mexican,10,1,3.4,153,42.5032004,-90.6684746,low,3.4
17342781,Tony Roma's,Dubuque,american,25,2,3.3,65,42.496464,-90.658609,low,3.3
17342799,Vinny Vanucchi's,Dubuque,italian,25,2,3.4,58,42.495689,-90.664029,low,3.4
17342772,Champps Americana,Dubuque,american,25,2,3.5,100,42.492018,-90.715247,low,3.5
17342771,Fiesta Cancun,Dubuque,mexican,10,1,3.6,156,42.49092,-90.740213,low,3.6
17342548,Happy Joe's Pizza & Ice Cream,Dubuque,desserts,0,1,3.5,74,42.4955,-90.7264,low,3.5
17342556,Houlihan's,Dubuque,american,25,2,3.6,117,42.516621,-90.645294,low,3.6
17342811,Ichiban Hibachi Steakhouse & Sushi Bar,Dubuque,japanese,40,3,3.7,83,42.492963,-90.712084,low,3.7
17342576,Kalmes Breaktime Bar & Grill,Dubuque,american,25,2,3.6,48,42.5043,-90.6646,low,3.6
17342770,L. May Eatery,Dubuque,international,40,3,3.8,198,42.503075,-90.668164,low,3.8
17342585,Los Aztecas,Dubuque,mexican,10,1,3.5,126,42.4916,-90.7055,low,3.5
17342494,Manna Java World Cafe,Dubuque,breakfast,10,1,3.5,119,42.500191,-90.6677349,low,3.5
17342594,Mario's Italian Restaurant,Dubuque,american,25,2,3.6,140,42.5048,-90.6691,low,3.6
17342625,Pepper Sprout Incorporated,Dubuque,american,40,3,3.6,159,42.4974,-90.6651,low,3.6
17342652,Shot Tower Inn,Dubuque,italian,25,2,3.6,131,42.4963,-90.6658,low,3.6
17342665,Sunshine Family Restaurant,Dubuque,american,10,1,3.5,60,42.4982789,-90.663686,low,3.5
17342810,Watershed Cafe,Dubuque,american,25,2,3.7,89,42.527556,-90.684882,low,3.7
17342775,Woodfire Grille,Dubuque,american,70,4,3.6,72,42.496378,-90.658988,low,3.6
16612028,The Belle General,East Ballina,cafe,20,2,4.1,56,-28.862663,153.593331,low,4.1
17536645,Jehova es Mi Pastor Tacos y Burritos,Fernley,mexican,10,1,3.7,83,39.607515,-119.252694,low,3.7
16613507,Flaxton Gardens,Flaxton,tea,30,3,3.5,37,-26.6521332,152.8771473,low,3.5
16607969,Bespoke Harvest,Forrest,cafe,20,2,3.7,29,-38.517292,143.714315,low,3.7
17374405,Houndstooth Grill & Tavern,Gainesville,american,25,2,4.4,239,34.0901,-83.8461,low,4.4
17375060,Hawg Wild BBQ & Catfish House,Gainesville,bbq,10,1,4.1,235,34.61802,-83.520693,low,4.1
17375164,Bourbon Street Grille,Gainesville,american,25,2,3.8,88,34.532973,-83.985353,low,3.8
17375078,Smokin Gold BBQ,Gainesville,bbq,10,1,3.9,133,34.533626,-83.983939,low,3.9
17375049,Hoka-Hoka Japanese Steak & Sushi,Gainesville,chinese,10,1,4.4,267,34.541044,-83.989317,low,4.4
17375077,Shenanigan's Irish Pub,Gainesville,bar food,25,2,4.1,171,34.533198,-83.986119,low,4.1
17375141,Fish Tales Lakeside Grille,Gainesville,seafood,25,2,3.8,107,34.183573,-83.938024,low,3.8
17375198,Antebellum,Gainesville,american,40,3,4.3,164,34.185707,-83.926217,low,4.3
17375180,Moonie's Texas Barbecue,Gainesville,bbq,10,1,4.1,182,34.180043,-83.927794,low,4.1
17375072,Atlanta Highway Seafood Market,Gainesville,sandwich,25,2,4.9,681,34.285102,-83.838457,low,4.9
17375047,Eat at Thai,Gainesville,thai,10,1,4.6,357,34.300182,-83.857993,low,4.6
17375074,Smoke House BBQ and Catering,Gainesville,bbq,25,2,3.8,89,34.222755,-83.860098,low,3.8
17374921,2 Dog,Gainesville,american,25,2,4.2,350,34.300567,-83.824023,low,4.2
17374819,Longstreet Cafe,Gainesville,southern,10,1,4.3,298,34.3166,-83.8272,low,4.3
17375089,Re-Cess,Gainesville,american,25,2,4.2,319,34.300332,-83.82686,low,4.2
17375214,Bodensee,Gainesville,german,40,3,3.8,114,34.701594,-83.727741,low,3.8
17374951,Hofer's Bakery & Cafe,Gainesville,german,10,1,3.9,136,34.7024,-83.7345,low,3.9
17374978,Troll Tavern,Gainesville,burger,25,2,2.2,108,34.7021,-83.7334,low,2.2
17375104,The Nacoochee Village Tavern & Pizzeria,Gainesville,italian,10,1,4.0,161,34.691208,-83.713498,low,4.0
16604358,Blue Bean Love Cafe,Hepburn Springs,cafe,20,2,3.8,192,-37.3123267,144.1387014,low,3.8
16604896,La Trattoria of Lavandula,Hepburn Springs,italian,7,1,3.8,93,-37.275494,144.110062,low,3.8
16612550,5 Little Pigs,Huskisson,breakfast,20,2,4.1,40,-35.0388698,150.6710743,low,4.1
16606299,Beach Box Cafe,Inverloch,burger,7,1,3.7,100,-38.6347458,145.7287133,low,3.7
16605794,Funkey Monkey,Lakes Entrance,breakfast,7,1,3.8,97,-37.8783865,147.9942247,low,3.8
17557488,Burger Queen Drive In,Lakeview,burger,10,1,3.6,41,42.1885,-120.3458,low,3.6
17452342,Blue Orchid Thai Restaurant,Lincoln,thai,25,2,4.5,799,40.8143,-96.7072,low,4.5
16611498,Stillwater on Belmore,Lorn,breakfast,20,2,3.6,18,-32.728097,151.558475,low,3.6
17842104,Mr.,Macedon,cafe,20,2,3.5,31,-37.423189,144.564174,low,3.5
17501291,Emilio's Cuban Cafe,Macon,coffee and tea,25,2,3.9,146,32.567741,-83.594494,low,3.9
17500759,Ingleside Village Pizza,Macon,pizza,10,1,4.9,478,32.853896,-83.657061,low,4.9
17500767,Jim Shaw's Seafood Grill & Bar,Macon,seafood,25,2,4.6,467,32.8496,-83.6737,low,4.6
17500819,Mandarin Chinese Restaurant,Macon,chinese,25,2,4.5,302,32.8899,-83.6766,low,4.5
17500911,Rookery,Macon,burger,25,2,4.5,289,32.8361,-83.6279,low,4.5
17501279,Bonefish Grill,Macon,american,40,3,4.1,293,32.929278,-83.713978,low,4.1
17500695,Downtown Grill,Macon,steak,70,4,4.0,195,32.8375,-83.6276,low,4.0
17501298,Greek Corner Deli,Macon,desserts,10,1,4.3,244,32.83654,-83.628703,low,4.3
17500847,Natalia's,Macon,european,70,4,4.2,379,32.928495,-83.787993,low,4.2
17500872,Papouli's Mediterranean Cafe & Market,Macon,greek,10,1,4.2,223,32.901,-83.6873,low,4.2
17501315,Benson's Steak and Sushi,Macon,american,25,2,3.7,243,32.556873,-83.662421,low,3.7
17501201,My Fathers Place,Macon,italian,25,2,3.7,104,32.5786,-83.624,low,3.7
17501247,Sushi Thai Restaurant,Macon,japanese,10,1,3.7,153,32.6184,-83.6665,low,3.7
17501281,The Mellow Mushroom,Macon,pizza,25,2,3.8,323,32.552684,-83.691044,low,3.8
17501143,El Jalisciense Mexican Restaurant,Macon,mexican,10,1,4.1,181,32.594666,-83.64935,low,4.1
17501292,Greek Village,Macon,american,25,2,4.0,316,32.6176839,-83.636618,low,4.0
17501308,Martin's BBQ,Macon,bbq,25,2,4.2,288,32.619321,-83.600201,low,4.2
17501301,Thai Pepper,Macon,japanese,10,1,4.0,232,32.593264,-83.665557,low,4.0
17501268,Zen Japanese Steakhouse and Sushi Bar,Macon,japanese,40,3,4.1,314,32.6147,-83.7184,low,4.1
16611701,Star Buffet,Mayfield,asian,20,2,2.9,11,-32.899178,151.7343832,low,2.9
17482142,Triangle Restaurant,Mc Millan,breakfast,10,1,2.4,17,46.3718,-85.7363,low,2.4
16609169,Three Anchors,Middleton Beach,bar food,30,3,3.8,176,-35.025861,117.917166,low,3.8
17687832,Vince's Restaurant & Pizzeria,Monroe,italian,25,2,3.6,65,42.606306,-89.653487,low,3.6
16613059,Poets Cafe,Montville,coffee and tea,30,3,2.4,193,-26.690462,152.893735,low,2.4
17534788,The Artesian Restaurant,Ojo Caliente,american,40,3,3.6,30,36.313638,-106.057666,low,3.6
17061237,Ceví_che Tapas Bar & Restaurant,Orlando,spanish,40,3,4.4,981,28.540432,-81.381077,low,4.4
17057397,'Ohana,Orlando,hawaiian,45,3,4.5,1151,28.405437,-81.585226,low,4.5
17058534,Earl of Sandwich,Orlando,american,35,3,4.7,1341,28.372858,-81.514608,low,4.7
17060320,Raglan Road Irish Pub and Restaurant,Orlando,irish,50,4,4.3,782,28.371338,-81.517725,low,4.3
17057925,Cafí© Tu Tu Tango,Orlando,new american,40,3,4.6,1293,28.440344,-81.469986,low,4.6
17060869,Texas de Brazil,Orlando,brazilian,100,4,4.6,2324,28.4676808,-81.4510725,low,4.6
17057591,Bahama Breeze Island Grille,Orlando,caribbean,45,3,4.3,910,28.437065,-81.471526,low,4.3
17059541,Maggiano's Little Italy,Orlando,italian,50,4,4.4,886,28.433235,-81.471447,low,4.4
17064266,Hawkers Asian Street Fare,Orlando,asian,35,3,4.6,1293,28.560505,-81.364347,low,4.6
17064405,Tako Cheena by Pom Pom,Orlando,asian,10,1,4.4,570,28.557845,-81.364547,low,4.4
17060516,Seasons 52 Fresh Grill,Orlando,american,60,4,4.4,1685,28.448175,-81.487978,low,4.4
17059012,Hollerbach's Willow Tree Cafí©,Orlando,german,40,3,4.8,1699,28.811653,-81.266871,low,4.8
17061296,Pom Pom's Teahouse and Sandwicheria,Orlando,american,25,2,4.9,1457,28.543571,-81.351467,low,4.9
17061205,Yellow Dog Eats,Orlando,american,35,3,4.9,1252,28.527592,-81.522987,low,4.9
17064031,Tibby's New Orleans Kitchen,Orlando,cajun,25,2,4.7,1412,28.601088,-81.322631,low,4.7
17066603,The Coop,Orlando,southern,25,2,3.6,432,28.597366,-81.357219,low,3.6
17057797,Bosphorous Turkish Cuisine,Orlando,mediterranean,40,3,4.2,568,28.5976271,-81.3508344,low,4.2
17061253,Ethos Vegan Kitchen,Orlando,american,25,2,4.4,797,28.592857,-81.352921,low,4.4
17061231,The Ravenous Pig,Orlando,pub food,40,3,4.4,1998,28.593297,-81.356024,low,4.4
16613649,Vivo Bar and Grill,Palm Cove,mediterranean,30,3,4.4,381,-16.748083,145.670768,low,4.4
18255631,Pier 70,Paynesville,modern australian,120,4,2.6,16,-37.9194154,147.7227832,low,2.6
16608483,DiVine,Penola,cafe,20,2,3.4,19,-37.379153,140.837409,low,3.4
17580453,Cactus Flower Cafe Navarre,Pensacola,mexican,25,2,4.2,635,30.4025979,-86.8573393,low,4.2
17580142,McGuire's Irish Pub & Brewery,Pensacola,burger,40,3,4.9,2238,30.4179,-87.2027,low,4.9
17580160,New Yorker Deli & Pizzeria,Pensacola,italian,10,1,4.6,792,30.4251,-87.1819,low,4.6
17580349,Tu-Do Vietnamese Restaurant,Pensacola,asian,10,1,4.5,828,30.4982,-87.2216,low,4.5
17580412,Carrabba's Italian Grill,Pensacola,italian,40,3,3.7,292,30.417318,-87.205855,low,3.7
17580590,Jaco's Bayfront Bar and Grille,Pensacola,tapas,25,2,3.9,502,30.403034,-87.213274,low,3.9
17580704,The Tin Cow,Pensacola,burger,25,2,3.7,559,30.4116106,-87.2150874,low,3.7
17579928,Cactus Flower Cafe,Pensacola,latin american,25,2,4.2,1268,30.4473322,-87.2080932,low,4.2
17579992,Dharma Blue,Pensacola,seafood,40,3,4.1,669,30.4101,-87.2092,low,4.1
17580030,Global Grill,Pensacola,european,40,3,4.4,900,30.411878,-87.2153054,low,4.4
17580074,Ichiban,Pensacola,japanese,25,2,4.3,765,30.4767,-87.2252,low,4.3
17580020,The Fish House,Pensacola,american,40,3,4.0,1270,30.407358,-87.211082,low,4.0
17580350,Tuscan Oven,Pensacola,italian,25,2,4.1,502,30.4692,-87.214,low,4.1
17580408,Flounders Chowder House,Pensacola,seafood,40,3,3.9,724,30.3359,-87.143,low,3.9
17579653,Hemingway's Island Grill,Pensacola,caribbean,40,3,3.5,479,30.335521,-87.142602,low,3.5
17580476,Native Cafe,Pensacola,breakfast,25,2,4.2,591,30.334776,-87.132932,low,4.2
17580422,Peg Leg Pete's,Pensacola,burger,40,3,4.4,1408,30.327864,-87.164376,low,4.4
17580539,The Grand Marlin,Pensacola,caribbean,40,3,4.3,905,30.34262,-87.149178,low,4.3
17580511,Original Georgios Authentic Greek Food,Pensacola,greek,10,1,4.7,816,30.3199824,-87.4218962,low,4.7
17580021,Fisherman's Corner,Pensacola,sandwich,40,3,4.4,747,30.308468,-87.427707,low,4.4
16604370,Mad Cowes Cafe,Phillip Island,breakfast,20,2,3.7,351,-38.448307,145.237813,low,3.7
17582467,Rupes Burgers,Pocatello,burger,10,1,3.7,104,43.1903,-112.3415,low,3.7
17582668,Texas Roadhouse,Pocatello,american,45,3,3.5,83,42.910518,-112.461326,low,3.5
17582498,Riverwalk Cafe,Pocatello,asian,10,1,3.6,91,42.62,-112.0132,low,3.6
17582499,Royal Hotel,Pocatello,pizza,0,1,3.6,59,42.6192,-112.0127,low,3.6
17582522,Buddy's Italian Restaurant,Pocatello,italian,40,3,3.7,222,42.8661,-112.4423,low,3.7
17582524,Butterburrs,Pocatello,american,30,3,3.6,121,42.8919,-112.4516,low,3.6
17582527,Chang Garden,Pocatello,chinese,10,1,3.5,93,42.8928,-112.441,low,3.5
17582551,Fifth Street Bagelry,Pocatello,coffee and tea,10,1,3.8,136,42.8631,-112.4397,low,3.8
17582558,Goody's Deli,Pocatello,pizza,10,1,3.8,160,42.8604,-112.4365,low,3.8
17582560,Grecian Key Restaurant,Pocatello,american,25,2,3.7,152,42.8639,-112.4524,low,3.7
17582677,Outer Limits Fun Zone,Pocatello,burger,10,1,3.5,57,42.878077,-112.459988,low,3.5
17582670,Portneuf Valley Brewing,Pocatello,american,25,2,3.7,191,42.860024,-112.443213,low,3.7
17582625,Sandpiper Restaurant & Lounge,Pocatello,american,40,3,3.6,85,42.9012,-112.432,low,3.6
17582627,Senor Iguanas,Pocatello,mexican,0,1,3.6,108,42.8942,-112.4433,low,3.6
17582700,Sushi Family,Pocatello,asian,25,2,3.6,132,42.88245,-112.452013,low,3.6
17582664,Taste of India Nepal,Pocatello,indian,25,2,3.8,141,42.863969,-112.45253,low,3.8
17582682,Thai Paradise,Pocatello,desserts,25,2,3.7,162,42.861871,-112.450106,low,3.7
17582669,The Bridge,Pocatello,new american,40,3,3.6,144,42.8585987,-112.4413856,low,3.6
18491935,Nosh Mahal,Pocatello,indian,25,2,0.0,1,42.891174,-112.44853,low,0.0
17582546,El Herradero,Pocatello,mexican,10,1,4.1,365,42.8774,-112.4419,low,4.1
17629582,Barrett Junction Cafe,Potrero,american,25,2,3.3,9,32.613431,-116.704731,low,3.3
17211719,Blue Point Grill,Princeton,seafood,70,4,4.0,542,40.352385,-74.651139,low,4.0
17144717,Giovanni's Shrimp Truck,Rest of Hawaii,seafood,25,2,4.5,691,21.677078,-157.948486,low,4.5
17143970,Kona Brewing Company,Rest of Hawaii,american,35,3,4.7,764,19.642752,-155.997362,low,4.7
17144991,Coconuts Fish Cafe,Rest of Hawaii,seafood,30,3,4.5,487,20.748838,-156.455284,low,4.5
17142519,Kihei Caffe,Rest of Hawaii,american,10,1,4.5,695,20.731487,-156.451847,low,4.5
17145408,Monkeypod Kitchen by Merriman,Rest of Hawaii,burger,40,3,4.2,485,20.6883746,-156.4309473,low,4.2
17143336,Sansei Seafood Restaurant & Sushi Bar,Rest of Hawaii,japanese,40,3,4.2,807,20.733554,-156.452556,low,4.2
17145077,Star Noodle,Rest of Hawaii,asian,10,1,4.6,723,20.885226,-156.674835,low,4.6
17141447,Aloha Mixed Plate,Rest of Hawaii,asian,10,1,4.2,874,20.886564,-156.684967,low,4.2
17142096,Gazebo,Rest of Hawaii,breakfast,25,2,4.4,552,20.992316,-156.667037,low,4.4
17142297,Hula Grill,Rest of Hawaii,hawaiian,40,3,4.3,1056,20.921347,-156.693821,low,4.3
17142535,Kimo's,Rest of Hawaii,hawaiian,40,3,4.3,707,20.876127,-156.680666,low,4.3
17142792,Mama's Fish House,Rest of Hawaii,hawaiian,70,4,4.9,1343,20.929622,-156.366445,low,4.9
17145495,Marukame Udon,Rest of Hawaii,japanese,10,1,4.9,602,21.279476,-157.825979,low,4.9
17143950,Yard House,Rest of Hawaii,american,40,3,4.6,1078,21.2794952,-157.8312476,low,4.6
17142747,Lulu's Waikiki,Rest of Hawaii,american,25,2,3.9,232,21.271826,-157.822716,low,3.9
17141990,Duke's Waikiki,Rest of Hawaii,hawaiian,70,4,4.4,1492,21.277583,-157.827196,low,4.4
17144732,Eggs 'n Things,Rest of Hawaii,breakfast,10,1,4.0,535,21.280663,-157.831538,low,4.0
17143282,Roy's,Rest of Hawaii,asian,70,4,4.2,531,21.279154,-157.831176,low,4.2
17143705,Wailana Coffee House,Rest of Hawaii,american,25,2,4.2,694,21.285396,-157.836031,low,4.2
17615915,The Lady & Sons,Savannah,southern,40,3,3.3,1201,32.0804,-81.0954,low,3.3
17616487,Green Truck Pub,Savannah,burger,40,3,4.7,906,32.052858,-81.096647,low,4.7
17615924,Leopold's Ice Cream,Savannah,desserts,10,1,4.6,880,32.0785,-81.0894,low,4.6
17615979,Mrs. Wilkes' Dining Room,Savannah,american,40,3,4.5,1014,32.0727,-81.0955,low,4.5
17616266,Zunzi's,Savannah,international,25,2,4.5,796,32.0775,-81.0911,low,4.5
17615976,Moon River Brewing Company,Savannah,american,25,2,3.7,747,32.0809,-81.0916,low,3.7
17616025,Pirates' House Restaurant,Savannah,american,40,3,3.8,566,32.0782,-81.0844,low,3.8
17615597,B. Matthew's Eatery,Savannah,american,25,2,4.1,683,32.0798,-81.0875,low,4.1
17615740,Crystal Beer Parlor,Savannah,american,25,2,4.4,690,32.0735,-81.0979,low,4.4
17616203,Goose Feathers Cafe and Bakery,Savannah,breakfast,10,1,4.2,680,32.0801,-81.0941,low,4.2
17616590,Henry's,Savannah,american,10,1,4.1,287,32.0794767,-81.0905213,low,4.1
17615855,Huey's On The River,Savannah,breakfast,40,3,4.1,802,32.0812,-81.0897,low,4.1
17616348,J. Christopher's,Savannah,breakfast,25,2,4.3,710,32.074495,-81.091482,low,4.3
17616368,Lulu's Chocolate Bar,Savannah,coffee and tea,10,1,4.3,456,32.080742,-81.097051,low,4.3
17616400,Rocks on the River,Savannah,pizza,70,4,4.0,687,32.081394,-81.092484,low,4.0
17616076,SOHO South Cafe,Savannah,cafe,25,2,4.3,719,32.0747,-81.0939,low,4.3
17616205,The Olde Pink House,Savannah,american,70,4,4.4,1803,32.0798,-81.0897,low,4.4
17616222,Vic's On The River,Savannah,american,70,4,4.1,558,32.0809,-81.0908,low,4.1
17616295,The Crab Shack,Savannah,seafood,40,3,3.8,883,32.011689,-80.865909,low,3.8
18483372,Sky On 57,Singapore,chinese,300,4,3.4,34,1.2826608,103.8600048,low,3.4
18484349,Cut By Wolfgang Puck,Singapore,american,270,4,4.0,33,1.285476931,103.8594222,low,4.0
18496057,Restaurant Andre,Singapore,french,500,4,3.8,33,1.279419756,103.8403602,medium,3.8
18483389,Potato Head Folk,Singapore,american,80,4,3.1,34,1.280502991,103.8416688,low,3.1
18483222,Jaan,Singapore,french,430,4,3.8,35,1.293220698,103.8536048,medium,3.8
18483085,Rhubarb Le Restaurant,Singapore,french,315,4,3.9,33,1.27944363,103.8430222,medium,3.9
18484423,Al'frank Cookies,Singapore,bakery,20,2,4.2,29,1.300404333,103.859422,low,4.2
18483714,Fratini La Trattoria,Singapore,italian,100,4,4.1,35,1.331128397,103.8070809,low,4.1
18485469,Boufe Boutique Cafe,Singapore,italian,50,3,3.2,29,1.29782554,103.8146178,low,3.2
18479690,The Refinery Singapore,Singapore,american,80,4,3.2,30,1.310668316,103.8621195,low,3.2
18483224,Chye Seng Huat Hardware,Singapore,cafe,40,3,3.7,33,1.311550709,103.8604162,low,3.7
18493989,Makansutra Gluttons Bay,Singapore,singaporean,30,3,3.0,25,1.289761964,103.8558665,low,3.0
18484464,Colony,Singapore,asian,220,4,3.8,30,1.2905805,103.859955,low,3.8
18483051,Summer Pavilion,Singapore,chinese,300,4,3.9,34,1.290800881,103.8601766,low,3.9
18482983,The Lokal,Singapore,singaporean,60,4,3.1,33,1.278373182,103.840921,low,3.1
18479742,I Am,Singapore,western,60,4,3.2,32,1.301707168,103.8584296,low,3.2
18482938,Super Loco,Singapore,american,95,4,3.2,30,1.290083898,103.839165,low,3.2
18483082,Artistry,Singapore,american,50,3,3.8,28,1.303034648,103.8581813,low,3.8
18483446,Bitters & Love,Singapore,finger food,40,3,3.9,35,1.28197,103.8482541,low,3.9
18483252,Artichoke Cafe,Singapore,cafe,75,4,3.2,33,1.299707726,103.8519943,low,3.2
17621616,Archie's Waeside,Sioux City,burger,40,3,3.7,100,42.7956,-96.1608,low,3.7
17621696,Bob Roe's Pizza,Sioux City,american,10,1,3.6,92,42.4765,-96.379,low,3.6
17621744,Da Kao Restaurant,Sioux City,asian,10,1,3.8,182,42.5026,-96.4173,low,3.8
17621759,Famous Dave's,Sioux City,bbq,10,1,3.6,76,42.492,-96.4051,low,3.6
17621763,Fuji Bay Japanese Restaurant,Sioux City,japanese,40,3,3.7,129,42.4965,-96.4046,low,3.7
17621780,HuHot Mongolian Grill,Sioux City,asian,25,2,3.6,94,42.4391,-96.3479,low,3.6
17621781,Hunan Palace,Sioux City,chinese,25,2,3.8,129,42.4375,-96.362,low,3.8
17621788,Jerry's Pizza,Sioux City,pizza,25,2,3.8,178,42.4764,-96.3596,low,3.8
17621793,Jim's Burgers,Sioux City,burger,10,1,3.7,97,42.4985,-96.4048,low,3.7
17621796,Johnnie Mars,Sioux City,american,10,1,3.9,161,42.495534,-96.378049,low,3.9
17621831,Miles Inn,Sioux City,american,10,1,3.7,122,42.4876,-96.3755,low,3.7
17621832,Milwaukee Wiener House,Sioux City,american,10,1,3.8,195,42.4930681,-96.4063904,low,3.8
17621833,Minerva's Food & Cocktails,Sioux City,american,40,3,3.7,146,42.5212,-96.418,low,3.7
17621834,Monterrey Mexican Restaurant,Sioux City,mexican,10,1,3.7,117,42.4351,-96.3691,low,3.7
17621869,Rebos,Sioux City,caribbean,25,2,3.8,187,42.4944454,-96.3959487,low,3.8
17621960,Tokyo Japanese Steakhouse & Sushi Bar,Sioux City,japanese,40,3,3.9,239,42.440592,-96.349464,low,3.9
17621746,Diamond Thai Cuisine,Sioux City,asian,10,1,4.0,303,42.5011,-96.4136,low,4.0
17621755,El Fredo Pizza,Sioux City,pizza,40,3,4.0,280,42.5106,-96.4204,low,4.0
17621946,Trattoria Fresco,Sioux City,italian,25,2,4.0,271,42.4949153,-96.4019631,low,4.0
17621552,Kahill's Steak-Fish Chophouse,Sioux City,american,70,4,3.5,58,42.485608,-96.4092028,low,3.5
17096140,Rumba Island Bar & Grill,Tampa Bay,bbq,25,2,4.6,1321,27.96076,-82.762624,low,4.6
17099925,Red Mesa Cantina,Tampa Bay,latin american,25,2,4.6,1629,27.770026,-82.636924,low,4.6
17092257,BellaBrava,Tampa Bay,american,25,2,4.1,921,27.7737426,-82.6329663,low,4.1
17092799,Ceviche Tapas Bar & Restaurant,Tampa Bay,spanish,25,2,4.1,986,27.7711464,-82.6333294,low,4.1
17095222,The Moon Under Water,Tampa Bay,british,25,2,4.1,1020,27.775462,-82.632174,low,4.1
17092293,Bern's Steak House,Tampa Bay,american,70,4,4.7,3157,27.931516,-82.482962,low,4.7
17102241,Boca Kitchen Bar Market,Tampa Bay,breakfast,40,3,3.9,665,27.941942,-82.46887,low,3.9
17102579,Edison: Food+Drink Lab,Tampa Bay,international,70,4,3.9,373,27.944244,-82.469306,low,3.9
17092801,Ceviche Tapas Bar & Restaurant,Tampa Bay,breakfast,25,2,4.4,1007,27.9410382,-82.4852372,low,4.4
17093273,Daily Eats,Tampa Bay,american,25,2,4.4,803,27.935039,-82.483124,low,4.4
17096198,Salt Rock Grill,Tampa Bay,american,40,3,4.2,1363,27.848357,-82.843253,low,4.2
17095098,Mazzaro's Italian Market,Tampa Bay,italian,10,1,4.9,1424,27.792047,-82.673621,low,4.9
17093135,Conch Republic Grill,Tampa Bay,sandwich,40,3,4.5,844,27.816086,-82.820856,low,4.5
17095236,Mr. Dunderbak's Biergarten and Marketplatz,Tampa Bay,european,40,3,4.9,1413,28.082909,-82.41294,low,4.9
17095979,Red Mesa Restaurant,Tampa Bay,breakfast,40,3,4.5,1203,27.816848,-82.638843,low,4.5
17099856,Datz,Tampa Bay,desserts,40,3,4.7,3074,27.9219315,-82.4932815,low,4.7
17100307,Ella's Americana Folk Art Cafe,Tampa Bay,international,40,3,4.8,1715,27.993645,-82.451041,low,4.8
17093600,Taco Bus,Tampa Bay,mexican,10,1,4.5,1868,27.995964,-82.449897,low,4.5
17100547,The Refinery,Tampa Bay,seafood,40,3,4.0,875,27.99384,-82.459339,low,4.0
17093124,Columbia Restaurant,Tampa Bay,cuban,40,3,4.4,1746,27.959884,-82.4351499,low,4.4
16608059,1918 Bistro & Grill,Tanunda,modern australian,30,3,4.4,339,-34.519619,138.966064,low,4.4
16605194,Pig and Whistle,Trentham East,australian,20,2,4.1,87,-37.396942,144.41272,low,4.1
17678243,Buffalo Wild Wings,Valdosta,bar food,25,2,3.4,98,30.846819,-83.319123,low,3.4
17678043,El Toreo Mexican Restaurant,Valdosta,mexican,25,2,3.1,83,30.8426,-83.3247,low,3.1
17677978,306 North Restaurant,Valdosta,seafood,40,3,3.9,231,30.8332,-83.2799,low,3.9
17677988,Austins Cattle Co,Valdosta,burger,40,3,3.7,216,30.8164364,-83.3170843,low,3.7
17678231,Beijing Cafe,Valdosta,asian,35,3,3.8,185,30.841892,-83.318554,low,3.8
17677990,Bleu Cafe,Valdosta,pizza,25,2,3.7,185,30.8308,-83.279,low,3.7
17677991,Bleu Pub,Valdosta,burger,10,1,3.8,281,30.8308,-83.2792,low,3.8
17678307,Bubba Jax Crab Shack,Valdosta,fast food,40,3,3.7,137,30.8223548,-83.3085736,low,3.7
17678276,Cheddar's Scratch Kitchen,Valdosta,american,25,2,3.7,209,30.824691,-83.316402,low,3.7
17678283,El Cazador,Valdosta,mexican,10,1,3.7,168,30.850888,-83.28078,low,3.7
17678222,Friends Grille and Bar,Valdosta,american,25,2,3.9,243,30.880146,-83.29633,low,3.9
17678055,Giulios Greek & Italian Restaurant,Valdosta,greek,40,3,3.8,221,30.8433,-83.2851,low,3.8
17678326,La Jalisco Supermercato,Valdosta,mexican,10,1,3.5,46,30.8465,-83.281,low,3.5
17678229,Masato Japanese,Valdosta,japanese,25,2,3.9,262,30.846763,-83.310343,low,3.9
17678097,Mom & Dad's Italian Restaurant,Valdosta,italian,25,2,3.7,183,30.8971,-83.3283,low,3.7
17678216,Mori's Japanese Steakhouse & Sushi Bar,Valdosta,japanese,70,4,3.5,208,30.841547,-83.318958,low,3.5
17678233,Passage 2 India,Valdosta,indian,25,2,3.8,245,30.87114,-83.289338,low,3.8
17678148,Rodeo Mexican Restaurant,Valdosta,mexican,25,2,3.8,199,30.868,-83.2868,low,3.8
17678291,Steel Magnolias,Valdosta,southern,40,3,3.8,225,30.8316,-83.2796,low,3.8
17678218,Smok'n Pig B-B-Q,Valdosta,bbq,25,2,4.1,575,30.897087,-83.332796,low,4.1
17558738,Blue House Cafe,Vernonia,coffee and tea,10,1,4.3,88,45.858667,-123.1954368,low,4.3
16608209,Anchorage Cafe Restaurant Wine Bar,Victor Harbor,coffee and tea,20,2,3.6,96,-35.5536609,138.624316,low,3.6
16654702,Lake House Restaurant,Vineland Station,italian,70,4,4.3,204,43.1868697,-79.3791465,low,4.3
17697444,Masala Grill & Coffee House,Waterloo,indian,10,1,3.2,18,42.516908,-92.456343,low,3.2
17696871,Brown Bottle The Cedar Falls,Waterloo,italian,25,2,3.7,134,42.5464,-92.4507,low,3.7
17696891,Four Queens Dairy Cream,Waterloo,desserts,10,1,3.9,190,42.5377,-92.4599,low,3.9
17696901,Hong Kong Chinese Restaurant,Waterloo,chinese,10,1,3.8,136,42.5133,-92.4322,low,3.8
17697384,HuHot Mongolian Grill,Waterloo,asian,25,2,3.7,113,42.512646,-92.432177,low,3.7
17697417,J's Homestyle Cooking,Waterloo,american,10,1,3.6,69,42.509472,-92.466597,low,3.6
17696918,Montage,Waterloo,american,40,3,3.6,89,42.5366,-92.4453,low,3.6
17696920,Mulligan's Brick Oven Grill,Waterloo,burger,25,2,3.6,80,42.5219,-92.444,low,3.6
17697398,Sakura,Waterloo,japanese,40,3,3.8,175,42.51259,-92.426215,low,3.8
17697406,Scratch,Waterloo,coffee and tea,10,1,3.7,136,42.5354081,-92.4457417,low,3.7
17696941,SOHO Sushi Bar & Deli,Waterloo,sandwich,25,2,3.6,114,42.5375,-92.4457,low,3.6
17696955,Texas Roadhouse,Waterloo,american,25,2,3.6,93,42.5127,-92.4291,low,3.6
17696957,Tony's La Pizzeria,Waterloo,pizza,25,2,3.6,89,42.53489,-92.445723,low,3.6
17697418,Chapala,Waterloo,mexican,25,2,3.6,69,42.477281,-92.323032,low,3.6
17697386,Galleria de Paco,Waterloo,american,40,3,3.6,86,42.494908,-92.339721,low,3.6
17697224,Golden China,Waterloo,chinese,10,1,3.7,73,42.458979,-92.356066,low,3.7
17697304,Rudy's Tacos,Waterloo,mexican,25,2,3.6,104,42.499705,-92.3772,low,3.6
17697389,The Screaming Eagle,Waterloo,american,10,1,3.7,101,42.4984,-92.335523,low,3.7
17697424,The Thai Bowl,Waterloo,thai,10,1,3.5,58,42.497919,-92.335769,low,3.5
17697332,Tokyo Japanese Steak House,Waterloo,japanese,25,2,3.9,156,42.46558,-92.3234,low,3.9
17694056,Theo Yianni's Authentic Greek Restaurant,Weirton,burger,25,2,3.9,156,40.396043,-80.529488,low,3.9
17559793,Fishpatrick's Crabby Cafe,Winchester Bay,burger,25,2,3.2,16,43.678998,-124.175346,low,3.2
16668008,Arigato Sushi,Yorkton,asian,25,2,3.3,26,51.2106824,-102.4613173,low,3.3
18212135,Denny's,Abu Dhabi,american,190,4,4.6,207,24.49550307,54.38279729,low,4.6
5704255,Famous Dave's Barbecue,Abu Dhabi,american,260,4,4.6,376,24.49569253,54.38294616,low,4.6
5701978,Pizza Di Rocco,Abu Dhabi,italian,150,3,4.4,471,24.48557932,54.38193094,low,4.4
5701729,Sofra Istanbul,Abu Dhabi,turkish,70,2,4.3,224,24.47756501,54.37127855,low,4.3
5704168,Salt,Abu Dhabi,fast food,100,3,4.2,228,24.4543119,54.38080709,low,4.2
18277098,Genghis Grill,Abu Dhabi,asian,180,4,4.6,81,24.47083582,54.37500816,low,4.6
5701446,Olive Garden,Abu Dhabi,italian,230,4,4.1,422,24.46936983,54.37332205,low,4.1
5700052,Cho Gao - Crowne Plaza Abu Dhabi,Abu Dhabi,thai,350,4,4.4,246,24.491235,54.365694,medium,4.4
5702418,Gazebo,Abu Dhabi,indian,120,3,4.0,355,24.33421694,54.52412188,low,4.0
5700386,Sangeetha Vegetarian Restaurant,Abu Dhabi,indian,60,2,3.6,268,24.48525254,54.36377607,low,3.6
5704202,Hot Palayok,Abu Dhabi,filipino,100,3,4.5,162,24.48277094,54.36615754,low,4.5
5701052,Applebee's,Abu Dhabi,american,250,4,4.0,205,24.43409939,54.41314146,low,4.0
5704118,Tikka Tonight,Abu Dhabi,pakistani,50,2,4.0,277,24.36312973,54.51003961,low,4.0
5701548,Bait El Khetyar,Abu Dhabi,lebanese,70,2,4.0,380,24.48841145,54.37143378,low,4.0
18235425,Indian By Nature,Abu Dhabi,indian,80,3,4.3,180,24.48959102,54.37324997,low,4.3
5702615,Via Delhi,Abu Dhabi,indian,100,3,4.0,525,24.49089202,54.37422059,low,4.0
5703500,Punjab Grill,Abu Dhabi,indian,330,4,4.9,216,24.4106148,54.4872137,medium,4.9
18253896,Tamba,Abu Dhabi,indian,500,4,4.7,201,24.488161,54.358147,medium,4.7
5701917,P.F. Chang's,Abu Dhabi,chinese,250,4,4.2,435,24.48761082,54.35782894,low,4.2
5702574,The Cheesecake Factory,Abu Dhabi,american,200,4,4.6,586,24.49053138,54.60685361,low,4.6
202321,The Farm,Dubai,mediterranean,280,3,3.9,927,25.095044,55.310519,low,3.9
206488,Maharaja Bhog,Dubai,indian,90,2,4.1,1448,25.25124063,55.30919038,low,4.1
209654,Rasoi Ghar,Dubai,indian,90,2,4.3,1281,25.25007862,55.3019169,low,4.3
18340881,Barbeque Nation,Dubai,indian,150,3,4.5,307,25.11338,55.215341,low,4.5
18233284,Farzi Cafe,Dubai,international,200,3,4.5,909,25.2080323,55.26191946,low,4.5
18269368,AB's Absolute Barbecues,Dubai,continental,160,3,4.9,641,25.254105,55.32874,low,4.9
18254160,Carnival By Tresind,Dubai,indian,500,4,4.9,322,25.211183,55.281966,medium,4.9
208939,AB's Absolute Barbecues,Dubai,indian,160,3,4.8,2510,25.10777315,55.17874617,low,4.8
201531,Hard Rock Cafe,Dubai,american,300,4,4.5,1388,25.22399154,55.35147775,low,4.5
208965,The Coffee Club,Dubai,cafe,140,3,4.5,403,25.21110278,55.25639722,low,4.5
208778,SALT,Dubai,fast food,100,3,4.3,1351,25.16812806,55.21152779,low,4.3
209703,Din Tai Fung,Dubai,asian,160,3,4.3,661,25.11851301,55.19854523,low,4.3
18381837,SpiceKlub,Dubai,indian,150,3,4.4,281,25.252054,55.288061,low,4.4
208850,Tresind - Nassima Royal Hotel,Dubai,indian,500,4,4.9,1352,25.22347744,55.28256778,medium,4.9
210134,Grand Barbeque Buffet Restaurant,Dubai,indian,150,3,4.4,552,25.24107351,55.27340334,low,4.4
201044,Red Lobster,Dubai,seafood,285,3,3.2,506,25.198291,55.278525,low,3.2
201340,The Cheesecake Factory,Dubai,american,270,3,4.7,2424,25.19726756,55.27856994,low,4.7
18289126,Parker's,Dubai,cafe,170,3,4.3,386,25.19500831,55.27927805,low,4.3
202507,Applebee's,Dubai,american,250,3,3.7,500,25.21135663,55.27430557,low,3.7
210139,Grub Shack,Dubai,goan,130,3,4.3,544,25.22931113,55.32548446,low,4.3
5600424,Kamat,Sharjah,indian,85,3,3.9,285,25.33315516,55.39273214,low,3.9
5602751,Vadakkan Pepper,Sharjah,south indian,70,3,3.8,210,25.338089,55.396984,low,3.8
5600457,Gazebo,Sharjah,indian,120,4,4.1,372,25.33320395,55.39269626,low,4.1
5600642,Katis Restaurant,Sharjah,indian,65,3,4.3,316,25.32578908,55.37637066,low,4.3
18268134,Zaroob,Sharjah,lebanese,110,4,3.9,69,25.32451353,55.38474888,low,3.9
18376208,Derby,Sharjah,fast food,40,2,4.1,33,25.33045321,55.37086055,low,4.1
5600959,Nayaab Haandi,Sharjah,pakistani,100,4,4.1,449,25.32813499,55.37552107,low,4.1
5600103,Najmat Lahore Restaurant,Sharjah,pakistani,80,3,4.2,504,25.35508316,55.38215585,low,4.2
5602586,Saffron,Sharjah,pakistani,90,3,4.1,192,25.35443539,55.38290787,low,4.1
5600961,Pizza Hut,Sharjah,fast food,80,3,2.4,154,25.30564046,55.37454341,low,2.4
5600960,Al Mukhtar Bakery,Sharjah,bakery,50,2,4.2,142,25.3084117,55.37728127,low,4.2
5601340,Aroos Damascus,Sharjah,arabian,60,3,4.2,444,25.34640794,55.39045796,low,4.2
5600701,Nando's,Sharjah,african,160,4,4.2,265,25.32188994,55.376027,low,4.2
5601404,Peking Chinese Restaurant,Sharjah,chinese,130,4,3.8,227,25.34839077,55.39922744,low,3.8
5600556,TGI Friday's,Sharjah,american,250,4,3.9,357,25.32774497,55.38781766,low,3.9
5602055,Rajasthan Al Malaki,Sharjah,indian,60,3,4.8,459,25.2887722,55.45195531,low,4.8
5601521,Applebee's,Sharjah,american,250,4,4.1,197,25.29782287,55.37353624,low,4.1
5602377,Paper Fig,Sharjah,cafe,150,4,4.5,143,25.3084123,55.45834266,low,4.5
5602884,Sis Burger,Sharjah,fast food,50,2,3.8,12,25.31127229,55.45425095,low,3.8
5602942,Crafted Blends,Sharjah,cafe,110,4,4.2,43,25.310369,55.460279,low,4.2
3400025,Jahanpanah,Agra,north indian,850,3,3.9,140,27.16166111,78.01154444,high,3.9
3400341,Rangrezz Restaurant,Agra,north indian,700,2,3.5,71,0.0,0.0,medium,3.5
3400005,Time2Eat - Mama Chicken,Agra,north indian,500,2,3.6,94,27.16083249,78.01160797,medium,3.6
3400021,Chokho Jeeman Marwari Jain Bhojanalya,Agra,rajasthani,400,2,4.0,87,27.19592778,77.99809167,medium,4.0
3400017,Pinch Of Spice,Agra,north indian,1000,3,4.2,177,27.201725,78.00755278,high,4.2
3400325,MoMo Cafe,Agra,north indian,2000,4,4.0,45,0.0,0.0,high,4.0
3400059,Peshawri - ITC Mughal,Agra,north indian,2500,4,4.3,133,27.160934,78.044095,high,4.3
3400060,Taj Bano - ITC Mughal,Agra,mughlai,2500,4,4.0,41,27.160934,78.044095,high,4.0
3400348,G Thal,Agra,rajasthani,800,3,3.6,59,0.0,0.0,high,3.6
3400072,Dawat-e-Nawab - Radisson Blu,Agra,north indian,3600,4,3.8,46,27.163303,78.057044,high,3.8
3400073,The Latitude - Radisson Blu,Agra,north indian,0,1,3.9,103,27.163303,78.057044,low,3.9
3400019,Dasaprakash Restaurant,Agra,south indian,550,2,4.1,121,27.16510833,78.01505278,medium,4.1
3400033,The Charcoal Chimney,Agra,north indian,1100,3,3.4,70,27.159795,78.04299,high,3.4
3400346,Sheroes Hangout,Agra,cafe,0,1,4.9,77,27.16185,78.040165,low,4.9
3400350,Bon Barbecue,Agra,north indian,1500,4,3.8,57,0.0,0.0,high,3.8
3400391,Chapter 1 Cafe,Agra,cafe,0,1,3.9,98,0.0,0.0,low,3.9
3400016,Pind Balluchi,Agra,north indian,900,3,3.7,175,27.15777222,78.04725,high,3.7
3400105,Pizza Hut,Agra,italian,700,2,4.4,134,27.16169444,78.03471389,medium,4.4
3400326,Tea'se Me - Rooftop Tea Boutique,Agra,chinese,1000,3,4.2,166,0.0,0.0,high,4.2
3400392,Thaaliwala,Agra,north indian,700,2,4.1,168,27.158822,78.045359,medium,4.1
111895,650 - The Global Kitchen,Ahmedabad,chinese,900,3,4.2,1582,23.01045111,72.5375741,high,4.2
110502,Patang - The Revolving Restaurant,Ahmedabad,continental,1800,4,3.7,1315,23.0261651,72.572009,high,3.7
18396250,Huber & Holly,Ahmedabad,ice cream,300,1,4.5,217,23.0383109,72.5123947,low,4.5
113702,@Mango,Ahmedabad,north indian,800,3,4.1,769,23.0401633,72.5017644,high,4.1
113433,Fozzie's Pizzaiolo,Ahmedabad,pizza,900,3,4.3,731,23.0330688,72.5098065,high,4.3
18438909,La Pino'z Pizza,Ahmedabad,pizza,500,2,4.4,113,23.0382314,72.5124872,medium,4.4
18143128,Mocha,Ahmedabad,cafe,1000,3,4.4,944,23.0318508,72.511307,high,4.4
18438944,Blue -  Rooftop Cafe Restaurant Bistro,Ahmedabad,north indian,1000,3,3.8,63,23.0290619,72.5570374,high,3.8
110436,MoMo Cafí© - Courtyard By Marriott,Ahmedabad,north indian,1400,3,3.6,375,23.027929,72.5115815,high,3.6
18385201,Cryo Lab,Ahmedabad,desserts,350,2,4.6,166,23.02874796,72.55998429,medium,4.6
110395,Swati Snacks,Ahmedabad,fast food,450,2,4.4,697,23.02443364,72.55903311,medium,4.4
18335583,Brick Kitchen,Ahmedabad,north indian,900,3,4.3,325,23.0643038,72.5316389,high,4.3
110237,Kabir Restaurant,Ahmedabad,north indian,600,2,3.8,432,23.04850469,72.5239649,medium,3.8
113537,Puffizza,Ahmedabad,italian,700,2,4.3,744,23.04619268,72.53774978,medium,4.3
113703,Cafe Alfresco,Ahmedabad,cafe,700,2,4.0,404,23.0437235,72.5498285,medium,4.0
18385186,The Cafe Baraco,Ahmedabad,cafe,600,2,4.4,317,23.0443367,72.5504755,medium,4.4
113325,Nini's Kitchen,Ahmedabad,north indian,950,3,4.5,1138,23.0117723,72.5072645,high,4.5
111826,Yanki Sizzlers,Ahmedabad,continental,1200,3,4.1,1041,23.0534466,72.5181257,high,4.1
110516,The Garden Cafe - The Fern,Ahmedabad,north indian,1200,3,4.1,192,23.0640914,72.5222172,high,4.1
18371341,Mazzo,Ahmedabad,cafe,550,2,3.9,166,23.0418026,72.5281083,medium,3.9
113570,Turquoise Villa,Ahmedabad,continental,1200,3,4.0,535,23.0285142,72.5434513,high,4.0
2400020,Aryan Family's Delight,Allahabad,north indian,500,3,3.4,57,25.454648,81.834502,medium,3.4
2400148,Bean Here,Allahabad,cafe,350,2,3.3,76,25.45343611,81.83316667,medium,3.3
2400019,Bikanerwala,Allahabad,north indian,500,3,3.2,51,25.451517,81.832616,medium,3.2
2400193,Dewsis,Allahabad,north indian,600,3,3.4,99,0.0,0.0,medium,3.4
2400027,Friends Forever,Allahabad,north indian,600,3,3.4,83,25.457687,81.835585,medium,3.4
17960073,Hotel Ravisha Continental,Allahabad,north indian,600,3,3.4,18,0.0,0.0,medium,3.4
2400119,KFC,Allahabad,american,500,3,3.4,58,25.449659,81.839744,medium,3.4
2400014,McDonald's,Allahabad,fast food,400,2,3.3,53,25.450329,81.834279,medium,3.3
2400403,Pind Balluchi,Allahabad,north indian,800,3,3.2,6,0.0,0.0,high,3.2
2400349,Pizza Hut,Allahabad,italian,700,3,3.4,35,0.0,0.0,medium,3.4
2400279,Subway,Allahabad,fast food,400,2,3.4,32,0.0,0.0,medium,3.4
2400017,Tandoor Restaurant,Allahabad,north indian,500,3,3.2,151,25.443994,81.860187,medium,3.2
18317988,The BrewMaster,Allahabad,north indian,0,1,3.3,49,25.45164569,81.83279631,low,3.3
2400144,The Tamarind Tree,Allahabad,south indian,500,3,3.4,106,25.459775,81.834841,medium,3.4
2400195,Cafe El Chico,Allahabad,continental,1000,4,3.6,59,25.44987222,81.83616667,high,3.6
2400052,Eat On,Allahabad,north indian,200,1,3.7,105,25.450377,81.834236,low,3.7
2400016,Hot Stuff,Allahabad,north indian,500,3,3.5,105,25.45235,81.841889,medium,3.5
2400293,Paradise,Allahabad,desserts,500,3,3.6,57,25.45031667,81.83168056,medium,3.6
2400009,Sagar Ratna,Allahabad,south indian,400,2,3.5,134,25.457116,81.859682,medium,3.5
2400010,Moti Mahal Delux,Allahabad,mughlai,800,3,3.3,58,25.454697,81.834492,high,3.3
2200011,Makhan Fish and Chicken Corner,Amritsar,north indian,700,2,3.4,345,31.64362,74.884359,medium,3.4
2200078,Charming Chicken,Amritsar,north indian,300,1,3.9,151,31.644532,74.884384,low,3.9
18204507,Ahuja Milk Bhandar,Amritsar,beverages,100,1,4.0,52,0.0,0.0,low,4.0
2200030,Crystal Restaurant,Amritsar,north indian,800,3,3.4,122,31.635658,74.875878,high,3.4
2200201,Brijwasi Chat Bhandar,Amritsar,street food,150,1,3.6,56,31.63488333,74.87575556,low,3.6
2200067,Bubby Fish & Chicken Corner,Amritsar,north indian,300,1,3.5,91,31.635671,74.875828,low,3.5
2200358,Bon Gateau,Amritsar,cafe,500,2,3.4,26,0.0,0.0,medium,3.4
2200001,The Yellow Chilli,Amritsar,north indian,1200,3,3.4,98,31.65558889,74.86276111,high,3.4
2200033,La Roma Pizzeria,Amritsar,fast food,400,2,3.5,111,31.65044167,74.86299167,medium,3.5
2200283,Sakhis Watz Kukin,Amritsar,north indian,700,2,3.6,51,31.6466891,74.8649101,medium,3.6
2200045,The Kulcha Land,Amritsar,north indian,200,1,3.9,206,31.65319167,74.86416667,low,3.9
2200149,Shudh Restaurant,Amritsar,north indian,600,2,3.4,44,31.62404722,74.87981389,medium,3.4
2200043,Bade Bhai Ka Brothers' Dhaba,Amritsar,north indian,500,2,3.7,94,31.62394722,74.87461944,medium,3.7
2200044,Bharawan Da Dhaba,Amritsar,north indian,500,2,3.5,461,31.62615278,74.87833333,medium,3.5
2200132,Brothers Dhaba,Amritsar,north indian,500,2,3.8,276,31.625981,74.877666,medium,3.8
2200236,Brothers' Amritsari Dhaba,Amritsar,north indian,400,2,3.8,71,31.62261111,74.87957778,medium,3.8
2200175,Gurdas Ram Jalebi Wala,Amritsar,mithai,100,1,4.1,104,0.0,0.0,low,4.1
2200000,Kesar Da Dhabha,Amritsar,north indian,500,2,4.1,878,31.624386,74.873005,medium,4.1
2200055,Beera Chicken Corner,Amritsar,north indian,500,2,3.8,192,31.641991,74.883997,medium,3.8
2200034,Surjit Food Plaza,Amritsar,north indian,1000,3,3.5,96,31.644818,74.877002,high,3.5
2200153,Kanha Sweets,Amritsar,fast food,150,1,4.1,140,0.0,0.0,low,4.1
2500023,Kream N Krunch,Aurangabad,north indian,800,3,3.6,240,19.87621944,75.34601667,high,3.6
2500076,Balbeer's Kitchen & Bar,Aurangabad,italian,850,3,3.3,65,0.0,0.0,high,3.3
2500054,Angeethi Restaurant,Aurangabad,north indian,600,2,3.3,63,19.87473333,75.35394167,medium,3.3
2500134,Domino's Pizza,Aurangabad,pizza,700,2,3.1,19,19.87610556,75.340775,medium,3.1
2500069,Hotel Laadli,Aurangabad,north indian,350,2,3.4,46,19.8755223,75.3671268,medium,3.4
2500256,Indiana Veg Restaurant,Aurangabad,south indian,450,2,3.4,75,19.874449,75.360232,medium,3.4
2500024,Madhuban Restaurant - Welcome Hotel Rama International,Aurangabad,north indian,1800,4,3.4,94,19.875908,75.358888,high,3.4
2500075,Mauj Restaurant,Aurangabad,italian,500,2,3.3,47,19.87642778,75.36479167,medium,3.3
2500029,Naivedya,Aurangabad,north indian,500,2,3.4,71,19.874103,75.3684187,medium,3.4
2500079,d' Curry House,Aurangabad,continental,1000,3,3.6,73,19.875337,75.316722,high,3.6
2500343,Mokoholic Juice Bar,Aurangabad,juices,300,1,3.5,21,0.0,0.0,low,3.5
2500052,Ashoka's Veg Restaurant,Aurangabad,south indian,400,2,3.3,46,19.87963056,75.32340278,medium,3.3
2500062,Kareem's Fine Dining,Aurangabad,mughlai,700,2,3.3,45,19.88025556,75.32350278,medium,3.3
2500056,That Baat,Aurangabad,maharashtrian,450,2,3.4,34,19.875016,75.322405,medium,3.4
2500030,Bhoj Restaurant,Aurangabad,north indian,450,2,3.7,89,19.87802778,75.317475,medium,3.7
2500390,Downside Up,Aurangabad,cafe,400,2,3.2,8,0.0,0.0,medium,3.2
2500007,Kareem's Kabab & Biryani,Aurangabad,mughlai,650,2,3.4,39,19.87699444,75.37235278,medium,3.4
2500123,Great Sagar Restaurant,Aurangabad,north indian,600,2,3.3,74,19.888716,75.321461,medium,3.3
2500122,Kailash Restaurant,Aurangabad,north indian,450,2,3.3,76,19.86696944,75.31889444,medium,3.3
2500346,Yalla Yalla,Aurangabad,north indian,500,2,3.3,71,0.0,0.0,medium,3.3
50943,Sultans of Spice,Bangalore,north indian,1300,3,4.1,2416,12.93328392,77.61542793,high,4.1
58268,The Fatty Bao - Asian Gastro Bar,Bangalore,asian,2400,4,4.7,2369,12.97022064,77.64539558,high,4.7
51705,Toit,Bangalore,italian,2000,4,4.8,10934,12.9791658,77.64070876,high,4.8
18162866,Three Dots & A Dash,Bangalore,european,1300,3,3.9,1354,12.98041024,77.64048882,high,3.9
18407918,Bombay Brasserie,Bangalore,modern indian,1500,3,4.2,231,12.970324,77.645748,high,4.2
56464,Glen's Bakehouse,Bangalore,bakery,800,2,4.0,3533,12.97909556,77.64062494,high,4.0
18221572,Onesta,Bangalore,pizza,600,2,4.3,1413,12.97845292,77.64368467,medium,4.3
18359919,Onesta,Bangalore,pizza,600,2,4.6,781,12.90622878,77.59679094,medium,4.6
18439634,ECHOES Koramangala,Bangalore,continental,950,2,4.7,276,12.934179,77.615797,high,4.7
51040,Truffles,Bangalore,american,800,2,4.7,9667,12.93329764,77.61429269,high,4.7
54162,The Black Pearl,Bangalore,north indian,1400,3,4.1,5385,12.93436454,77.61615515,high,4.1
18305628,Eat Street,Bangalore,north indian,400,1,4.3,753,12.939496,77.625999,medium,4.3
18385443,Koramangala Social,Bangalore,continental,1500,3,4.5,1288,12.93566181,77.61413042,high,4.5
56618,AB's - Absolute Barbecues,Bangalore,european,1400,3,4.6,6907,12.94993396,77.6993861,high,4.6
18353121,Flechazo,Bangalore,asian,1200,3,4.4,983,12.97537691,77.696664,high,4.4
18366652,Onesta,Bangalore,pizza,600,2,4.6,627,13.0291977,77.5709967,medium,4.6
18430785,Communiti,Bangalore,continental,1200,3,4.2,334,12.97253153,77.60817859,high,4.2
58882,Big Brewsky,Bangalore,finger food,1800,3,4.5,5705,12.91304096,77.68323686,high,4.5
18422898,Hoot,Bangalore,continental,1400,3,3.9,405,12.914264,77.6784,high,3.9
18339874,Farzi Cafe,Bangalore,modern indian,1500,3,4.4,754,12.9721612,77.5960137,high,4.4
2600472,Black N White Cafe,Bhopal,cafe,200,1,3.3,51,23.211529,77.419399,low,3.3
2600514,Maybe There,Bhopal,cafe,600,2,3.4,63,0.0,0.0,medium,3.4
2600109,Sagar Gaire Fast Food,Bhopal,fast food,250,1,4.9,427,23.214294,77.435361,low,4.9
2600311,The Kasbah,Bhopal,north indian,700,2,3.9,126,23.18499152,77.41722744,medium,3.9
2600008,Bake N Shake,Bhopal,fast food,500,2,4.2,223,23.214459,77.434976,medium,4.2
2600031,10 Downing Street,Bhopal,north indian,1000,3,4.0,257,23.232357,77.429989,high,4.0
2600250,Chi Kitchen,Bhopal,chinese,1000,3,4.0,103,0.0,0.0,high,4.0
2600025,Pizza Hut,Bhopal,pizza,650,2,4.1,118,23.232537,77.429845,medium,4.1
2600494,Kafe Kulture,Bhopal,cafe,600,2,3.8,98,0.0,0.0,medium,3.8
18108352,Violet Hour,Bhopal,bakery,500,2,3.8,33,23.26626099,77.3796051,medium,3.8
2600079,Bapu Ki Kutia,Bhopal,north indian,550,2,3.5,175,23.233219,77.433571,medium,3.5
2600340,Da pizzeria,Bhopal,pizza,500,2,3.6,111,0.0,0.0,medium,3.6
18461339,Papa Mexicano,Bhopal,fast food,350,2,3.6,20,23.23079116,77.43702042,medium,3.6
2600010,Bake N Shake,Bhopal,fast food,500,2,4.1,103,0.0,0.0,medium,4.1
2600230,Manohar Dairy And Restaurant,Bhopal,north indian,400,2,4.4,243,23.234249,77.434007,medium,4.4
2600003,Manohar Dairy And Restaurant,Bhopal,north indian,400,2,4.1,238,23.264015,77.408236,medium,4.1
2600303,Kebabsville - Sayaji Hotel,Bhopal,north indian,1800,4,4.3,128,23.218998,77.373573,high,4.3
2600180,Indian Coffee House,Bhopal,south indian,500,2,3.9,161,23.234631,77.401663,medium,3.9
2600393,The Urban Socialite,Bhopal,italian,900,3,3.8,79,0.0,0.0,high,3.8
2600007,Bake N Shake,Bhopal,fast food,500,2,4.3,120,23.235123,77.398886,medium,4.3
2900587,Tyre Patty,Bhubaneshwar,cafe,500,2,3.9,289,0.0,0.0,medium,3.9
2900354,Silver Streak,Bhubaneshwar,chinese,550,2,4.1,379,20.286333,85.846838,medium,4.1
2900633,Barbeque Nation,Bhubaneshwar,mediterranean,1200,3,4.6,154,0.0,0.0,high,4.6
18408676,Central Perk 7,Bhubaneshwar,cafe,600,2,4.5,145,20.32553933,85.81781287,medium,4.5
2900234,The Chicken Dinesty,Bhubaneshwar,fast food,500,2,3.9,247,20.32634444,85.81856667,medium,3.9
2900550,Taste Of China,Bhubaneshwar,chinese,500,2,4.0,145,0.0,0.0,medium,4.0
18362677,Michael's Kitchen,Bhubaneshwar,north indian,850,2,3.7,118,20.31149633,85.83394811,high,3.7
2900044,Mamma Mia - Mayfair Lagoon,Bhubaneshwar,cafe,1400,3,4.1,256,20.301785,85.819178,high,4.1
2900469,99 North Restaurant,Bhubaneshwar,north indian,450,1,3.6,173,20.34306944,85.80823611,medium,3.6
2900219,Adda,Bhubaneshwar,north indian,600,2,3.8,424,20.353675,85.82272222,medium,3.8
2900473,Chill Ummm,Bhubaneshwar,chinese,450,1,3.7,338,20.35324774,85.825257,medium,3.7
2900020,Lal Qila,Bhubaneshwar,mughlai,500,2,3.7,228,20.35299167,85.82685,medium,3.7
2900562,Richard's Kitchen & Coffee Bar,Bhubaneshwar,cafe,450,1,3.8,253,20.35343289,85.82599327,medium,3.8
18413814,Aangan Horizon,Bhubaneshwar,north indian,900,2,4.0,90,20.34347604,85.82289287,high,4.0
18235390,Brewberrys The Coffee Bar,Bhubaneshwar,cafe,400,1,4.0,197,20.34314407,85.81112333,medium,4.0
2900640,Chai Break,Bhubaneshwar,italian,800,2,4.3,69,0.0,0.0,high,4.3
18271459,JUGAAD JN.,Bhubaneshwar,north indian,300,1,4.1,199,20.35348061,85.82225987,low,4.1
18377283,Cha cTea,Bhubaneshwar,cafe,500,2,3.8,56,20.29322917,85.84295925,medium,3.8
18408600,Food Fever,Bhubaneshwar,chinese,900,2,4.2,49,20.29575519,85.84516996,high,4.2
2900012,Mainland China,Bhubaneshwar,chinese,1500,3,4.3,345,20.292363,85.818494,high,4.3
18436042,Eram Rooftop,Bhubaneshwar,asian,400,1,3.5,89,20.28398889,85.82669624,medium,3.5
122003,The Night Factory,Chandigarh,north indian,850,2,3.7,665,30.71005476,76.801234,high,3.7
121552,Brooklyn Central,Chandigarh,american,1600,3,4.2,676,30.7050693,76.8009555,high,4.2
121214,Chili's,Chandigarh,mexican,1400,3,4.3,970,30.7056682,76.8007752,high,4.3
121553,Kylin Experience,Chandigarh,japanese,1600,3,4.1,300,30.7056102,76.80064,high,4.1
121312,Mocha,Chandigarh,continental,1400,3,4.0,428,30.7051482,76.8008653,high,4.0
121335,Pirates of Grill,Chandigarh,north indian,1200,3,4.0,1022,30.705775,76.8009555,high,4.0
120014,Barbeque Nation,Chandigarh,north indian,1300,3,4.5,1450,30.7257045,76.8051917,high,4.5
123125,TGI Friday's,Chandigarh,american,1800,3,4.3,228,30.7249431,76.8063634,high,4.3
120221,Pal Dhaba,Chandigarh,north indian,700,2,3.8,982,30.7194841,76.801316,medium,3.8
122064,Midnight Chef,Chandigarh,north indian,1000,3,3.4,502,30.72476574,76.76560555,high,3.4
120203,Nik Baker's,Chandigarh,bakery,650,2,4.1,698,30.72152328,76.76055595,medium,4.1
120219,OvenFresh,Chandigarh,cafe,650,2,4.1,397,30.7216086,76.7606106,medium,4.1
121425,Super Donuts,Chandigarh,burger,450,1,4.0,265,30.72137975,76.76028337,medium,4.0
123010,Taco Bell,Chandigarh,mexican,600,2,4.2,252,30.72114167,76.75984483,medium,4.2
123294,Karim's,Chandigarh,mughlai,800,2,3.3,86,30.7306181,76.8009793,high,3.3
121120,Virgin Courtyard,Chandigarh,italian,2200,4,4.4,817,30.7334795,76.7976205,high,4.4
122940,Burgrill,Chandigarh,burger,500,2,4.5,249,30.740827,76.7978909,medium,4.5
122830,Uncle Jack's,Chandigarh,desserts,600,2,4.0,356,30.7408896,76.7972148,medium,4.0
69024,That Madras Place,Chennai,european,800,2,4.2,1810,13.0058006,80.250744,high,4.2
72475,Haunted,Chennai,north indian,800,2,3.8,519,13.0864385,80.2206723,high,3.8
70431,Pantry d'or,Chennai,continental,750,2,4.4,1504,13.0918088,80.2191037,high,4.4
71443,Palmshore,Chennai,north indian,850,2,4.2,841,13.02977985,80.20881157,high,4.2
73088,Chili's,Chennai,mexican,1700,3,4.8,1262,13.058616,80.264151,high,4.8
18423075,Writer's Cafe,Chennai,cafe,450,1,4.2,191,13.05434714,80.25722075,medium,4.2
70890,Fusilli Reasons,Chennai,italian,350,1,4.6,1510,13.08187778,80.24851944,medium,4.6
71492,Ciclo Cafe,Chennai,cafe,1100,3,4.1,1004,13.02239444,80.24243889,high,4.1
70092,Kaidi Kitchen,Chennai,italian,1500,3,4.0,1820,13.044694,80.26147,high,4.0
70393,Bombay Brasserie,Chennai,north indian,1200,3,4.6,1753,13.066762,80.251865,high,4.6
70894,Maplai,Chennai,south indian,1000,3,4.2,1714,13.06418056,80.23644167,high,4.2
73279,Paradise,Chennai,biryani,900,2,3.8,1317,12.97279291,80.24998214,high,3.8
69951,L'amandier,Chennai,european,1200,3,4.3,1607,13.02701773,80.25479067,high,4.3
72497,Palmshore,Chennai,north indian,850,2,4.4,645,13.02627908,80.17456822,high,4.4
65413,Palmshore,Chennai,north indian,850,2,4.3,742,13.02628637,80.2752348,high,4.3
70497,Basil With A Twist,Chennai,continental,1500,3,4.5,1210,13.04964535,80.24226844,high,4.5
65055,Barbeque Nation,Chennai,north indian,2000,4,4.4,3848,13.045479,80.23311,high,4.4
18384227,AB's - Absolute Barbecues,Chennai,north indian,1600,3,4.9,859,12.981615,80.231598,high,4.9
72604,Coal Barbecues,Chennai,north indian,1400,3,4.6,1267,12.98604688,80.21811381,high,4.6
66457,Pind,Chennai,north indian,900,2,4.0,2272,12.975996,80.221898,high,4.0
18260777,Kuchi n Kream,Coimbatore,cafe,800,3,4.6,202,11.01629845,76.9720757,high,4.6
3000107,Haribhavanam Hotel,Coimbatore,south indian,600,2,3.9,318,11.022477,76.995667,medium,3.9
3000132,Kites Cafe,Coimbatore,cafe,400,2,3.8,124,11.025083,77.015393,medium,3.8
3000122,Zucca Pizzeria,Coimbatore,pizza,600,2,3.5,274,11.02483917,77.00700302,medium,3.5
3001032,Burger Ka Baap,Coimbatore,fast food,500,2,4.3,147,11.02216944,76.99959444,medium,4.3
3000021,The Cascade Restaurant,Coimbatore,chinese,1200,3,4.1,243,11.02127778,76.99501667,high,4.1
18434000,24 Plus Cafe & Restaurant,Coimbatore,continental,450,2,3.8,24,10.96185,76.971082,medium,3.8
3000195,Valarmathi Kongunaatu Samayal,Coimbatore,south indian,350,2,4.5,380,11.001852,76.976268,medium,4.5
3000126,Bird On Tree,Coimbatore,continental,1200,3,3.8,221,11.00863836,76.98431119,high,3.8
18280306,Tim's Bistro,Coimbatore,north indian,700,2,3.9,85,11.0030085,76.9754397,medium,3.9
3001489,Batlivala & Khanabhoy,Coimbatore,parsi,1200,3,4.2,40,11.00175265,76.98624135,high,4.2
3000770,Cafe Totaram,Coimbatore,cafe,600,2,4.0,132,11.00076241,76.98187642,medium,4.0
3000062,Cream Centre,Coimbatore,north indian,1000,3,4.0,203,11.00366944,76.97649444,high,4.0
3000016,On The Go,Coimbatore,italian,1500,4,4.0,215,11.00368056,76.975525,high,4.0
3000014,Sree Annapoorna,Coimbatore,south indian,400,2,4.3,225,11.00668611,76.95173611,medium,4.3
3000001,That's Y Food,Coimbatore,north indian,1400,3,4.2,299,11.010375,76.95295,high,4.2
3001321,CakeBee,Coimbatore,bakery,350,2,4.9,200,11.02611735,76.94465239,medium,4.9
3000996,Yari,Coimbatore,north indian,700,2,4.2,221,11.02091,76.940432,medium,4.2
3001065,Cream Stone,Coimbatore,desserts,300,1,4.3,161,11.02229761,76.9983492,low,4.3
3000048,Barbeque Nation,Coimbatore,north indian,1400,3,4.4,505,10.99413611,76.96330278,high,4.4
3500012,The Punjabi Essence Restaurant,Dehradun,north indian,800,3,3.6,102,0.0,0.0,high,3.6
3500007,Tirupati Restaurant,Dehradun,south indian,500,3,3.8,115,0.0,0.0,medium,3.8
3500017,Anandam,Dehradun,desserts,650,3,3.9,141,30.335259,78.053162,medium,3.9
3500018,Town Table Restaurant,Dehradun,north indian,1000,4,3.9,173,30.340722,78.060221,high,3.9
3500011,Kalsang Friends Corner,Dehradun,chinese,750,3,4.2,406,30.346994,78.062543,high,4.2
18416632,The Great Indian Pub,Dehradun,north indian,1500,4,4.9,50,30.36128079,78.06802238,high,4.9
18279289,BMG - All Day Dining,Dehradun,chinese,0,1,4.3,63,30.36268594,78.06888981,low,4.3
18408585,Punjab Grill,Dehradun,mughlai,1250,4,4.0,98,30.359722,78.067079,high,4.0
3500059,TBistro,Dehradun,north indian,550,3,3.8,230,30.332735,78.054222,medium,3.8
3500081,Y Cafe & Restaurant,Dehradun,cafe,500,3,4.0,94,30.328174,78.049117,medium,4.0
17971273,Eddie's Patisserie,Dehradun,bakery,350,2,4.1,64,0.0,0.0,medium,4.1
3500365,First Gear Cafe,Dehradun,cafe,700,3,3.9,131,0.0,0.0,medium,3.9
3500013,Dunkin Donuts,Dehradun,burger,600,3,3.9,101,30.366322,78.070453,medium,3.9
3500024,Doon Darbar,Dehradun,north indian,600,3,3.9,121,30.31952778,78.04026667,medium,3.9
3500488,Razzmatazz,Dehradun,cafe,400,2,3.9,39,0.0,0.0,medium,3.9
3500505,Barbeque Nation,Dehradun,north indian,1600,4,4.4,66,30.3425093,78.061187,high,4.4
3500010,Black Pepper Restaurant,Dehradun,north indian,1200,4,4.0,175,30.327968,78.046106,high,4.0
3500414,Cafe Marigold,Dehradun,cafe,500,3,4.1,104,0.0,0.0,medium,4.1
18440677,Jalapenos,Dehradun,cafe,500,3,4.2,68,30.37220198,78.07715102,medium,4.2
3500484,Kalsang AMA Cafe,Dehradun,cafe,600,3,4.2,89,0.0,0.0,medium,4.2
301728,Desire Foods,Faridabad,chinese,250,1,2.9,4,28.4900591,77.3066401,low,2.9
5992,Knight Rock,Faridabad,north indian,500,2,2.8,16,28.4901567,77.304776,medium,2.8
301730,Punjab Restaurant,Faridabad,north indian,150,1,2.8,8,28.4901368,77.305563,low,2.8
301729,Raju Dhaba,Faridabad,north indian,150,1,2.9,8,28.4900979,77.3061016,low,2.9
301731,Rakheja Bakery,Faridabad,bakery,100,1,2.8,7,28.490062,77.3057446,low,2.8
311053,Snax Points,Faridabad,chinese,300,1,3.0,4,28.4901198,77.3053835,low,3.0
9299,Aggarwal Sweet Corner,Faridabad,mithai,100,1,0.0,1,28.49629167,77.30274167,low,0.0
9178,Kashyap Vaishno Dhaba,Faridabad,north indian,100,1,0.0,3,28.4959154,77.303542,low,0.0
18477319,Total Food Court,Faridabad,north indian,400,1,0.0,3,0.0,0.0,medium,0.0
18433852,The Chaiwalas,Faridabad,cafe,300,1,0.0,0,28.4262842,77.3000877,low,0.0
304046,Cafe And More,Faridabad,fast food,300,1,2.9,4,28.4946638,77.2905651,low,2.9
309936,Green Chick Chop,Faridabad,raw meats,350,1,3.0,7,28.4946804,77.2905276,medium,3.0
309927,Kolkata Hot Kathi Rolls,Faridabad,fast food,300,1,2.9,11,28.4922473,77.2918292,low,2.9
18377449,Aapki Rasoi,Faridabad,north indian,200,1,0.0,1,28.4990636,77.2918292,low,0.0
18465871,Fusion Food Corner,Faridabad,north indian,300,1,0.0,0,0.0,0.0,low,0.0
18472646,Punjabi Rasoi,Faridabad,north indian,400,1,0.0,0,28.4923251,77.292431,medium,0.0
18037826,Kebab Xpress,Faridabad,north indian,600,2,2.8,49,28.4698631,77.3074479,medium,2.8
301163,McDonald's,Faridabad,fast food,500,2,3.4,58,28.4695043,77.3074479,medium,3.4
4931,Suruchi,Faridabad,north indian,700,2,3.4,233,28.4701322,77.3074479,medium,3.4
1804,Berco's,Faridabad,chinese,1100,3,3.8,508,28.4700256,77.3072684,high,3.8
312102,Dunkin' Donuts,Faridabad,burger,600,2,3.6,98,28.4693655,77.3074031,medium,3.6
18217857,The Chocolate Room,Faridabad,cafe,900,2,3.6,59,28.4693655,77.3074031,high,3.6
18471268,Baskin Robbin,Faridabad,desserts,300,1,0.0,0,28.469594,77.3074479,low,0.0
18381244,Popcorn Fusion,Faridabad,fast food,200,1,0.0,1,28.4693655,77.3074031,low,0.0
18408041,Subway,Faridabad,american,500,2,0.0,2,28.4700019,77.3074928,medium,0.0
311051,KFC,Faridabad,american,500,2,2.1,57,28.46980656,77.30706006,medium,2.1
18133510,Barbeque Nation,Faridabad,north indian,1600,3,4.0,299,28.4698629,77.3073785,high,4.0
308380,Yo! China,Faridabad,chinese,1300,3,4.1,239,28.4693655,77.3074031,high,4.1
6077,Giani's,Faridabad,ice cream,400,1,3.2,16,28.3980691,77.3130127,medium,3.2
308082,Momo-Cha,Faridabad,fast food,200,1,2.7,16,28.3979794,77.3130127,low,2.7
309558,Shree Rathnam,Faridabad,south indian,800,2,3.4,48,28.397424,77.3128332,high,3.4
8128,Mirage Restro Bar,Faridabad,north indian,1000,3,2.4,25,28.3978083,77.3131025,high,2.4
304062,Jai Jagannath Hotel,Faridabad,south indian,200,1,0.0,3,28.4937692,77.294319,low,0.0
9785,Gelato Vinto,Faridabad,desserts,250,1,2.8,12,28.3868454,77.3139102,low,2.8
312514,Maggi Point,Faridabad,fast food,200,1,0.0,2,28.3869029,77.3140449,low,0.0
308961,Angaar,Faridabad,north indian,1200,3,0.0,0,28.4719854,77.3056977,high,0.0
308963,TcozY,Faridabad,cafe,1500,3,0.0,0,28.4722089,77.3066401,high,0.0
308962,The Retriever,Faridabad,north indian,1500,3,0.0,0,28.4723428,77.3062507,high,0.0
8169,Bangali Sweets & Restaurant,Faridabad,mithai,100,1,0.0,2,28.4534629,77.3153578,low,0.0
309368,Silver,Faridabad,north indian,1500,3,0.0,3,28.446715,77.316429,high,0.0
18472429,Chill 'N Grill,Faridabad,north indian,300,1,0.0,0,28.3954463,77.2900667,low,0.0
18472418,Punjabi Restaurant,Faridabad,north indian,500,2,0.0,0,28.3939512,77.2874809,medium,0.0
18472426,Standard Chicken Point,Faridabad,mughlai,500,2,0.0,0,28.3940171,77.2875524,medium,0.0
18450934,The Grillz & Gravy,Faridabad,north indian,400,1,0.0,0,28.3982684,77.2922781,medium,0.0
6025,Cakes 'n Bakes - Park Plaza,Faridabad,bakery,1000,3,3.0,15,28.4292178,77.2969459,high,3.0
6013,Cafe Bite,Faridabad,cafe,500,2,3.2,19,28.383665,77.3144487,medium,3.2
8153,Cafe Light,Faridabad,cafe,500,2,2.8,8,28.3837046,77.3144877,medium,2.8
18471296,Little Cafe,Faridabad,fast food,300,1,0.0,0,28.3836738,77.3145373,low,0.0
18279477,Momo-Cha,Faridabad,north indian,450,1,2.8,20,28.3754863,77.3291609,medium,2.8
18359331,Oregano India,Faridabad,fast food,500,2,3.1,11,28.3689797,77.3266079,medium,3.1
301151,Sagar Bakery,Faridabad,bakery,150,1,3.0,11,28.3692291,77.3270132,low,3.0
18204479,Smugglers,Faridabad,north indian,450,1,3.1,7,28.3702087,77.329628,medium,3.1
2198,Welcome,Faridabad,north indian,700,2,2.9,13,28.3777541,77.3288978,medium,2.9
18434243,Giani's,Faridabad,ice cream,400,1,0.0,0,28.3692291,77.3270132,medium,0.0
18273628,Invitation,Faridabad,north indian,700,2,0.0,3,0.0,0.0,medium,0.0
18471262,New Dilight,Faridabad,north indian,500,2,0.0,0,28.3730138,77.3295018,medium,0.0
18258480,Chimney,Faridabad,north indian,800,2,3.3,25,28.3725172,77.319026,high,3.3
9698,Chopstick,Faridabad,chinese,300,1,3.0,22,28.371835,77.3185858,low,3.0
8326,Hot & Tasty Chinese Food,Faridabad,north indian,450,1,2.6,26,28.3719511,77.3184832,medium,2.6
18270379,Sanjha Chulha,Faridabad,north indian,700,2,2.9,16,28.3692881,77.32157,medium,2.9
304006,Frontier,Faridabad,bakery,200,1,2.9,7,28.38339444,77.31429167,low,2.9
308957,Oxy Lounge,Faridabad,north indian,1500,3,3.1,28,28.384502,77.3244365,high,3.1
18427216,City Dhaba,Faridabad,north indian,550,2,0.0,0,28.3811924,77.3144456,medium,0.0
18433315,Garam Masala,Faridabad,north indian,400,1,0.0,0,0.0,0.0,medium,0.0
8266,Mittal Fast Food,Faridabad,fast food,100,1,0.0,0,28.38471389,77.32425,low,0.0
18383469,Al Bake,Faridabad,north indian,600,2,3.2,31,28.395009,77.3229299,medium,3.2
1367,Anupam Sweet,Faridabad,north indian,400,1,3.4,70,28.3949008,77.3222568,medium,3.4
9650,Cafe Coffee Day,Faridabad,cafe,450,1,3.3,67,28.3952671,77.3236112,medium,3.3
308335,Chicago Pizza,Faridabad,pizza,600,2,2.7,35,28.3950296,77.3217184,medium,2.7
18391065,Crispy Crust,Faridabad,north indian,500,2,3.4,22,28.3950992,77.3241683,medium,3.4
301193,Frontier,Faridabad,bakery,200,1,3.3,17,28.3951274,77.3235114,low,3.3
18107832,Gulab,Faridabad,north indian,600,2,2.6,39,28.3952906,77.3239437,medium,2.6
18089254,Hunger Cure Express,Faridabad,fast food,500,2,3.3,35,28.3946937,77.3217312,medium,3.3
312981,Maitre Patissier,Faridabad,bakery,500,2,3.4,35,0.0,0.0,medium,3.4
18082235,Momo-Cha,Faridabad,chinese,400,1,2.7,32,28.3951869,77.3224363,medium,2.7
18138421,Nirula's,Faridabad,fast food,950,2,2.6,14,28.452631,77.292179,high,2.6
18421965,The Grub House,Faridabad,cafe,600,2,2.7,17,28.3950834,77.323244,medium,2.7
303267,Twenty Four Seven,Faridabad,fast food,300,1,3.4,35,28.3950913,77.3234608,low,3.4
7471,Cafe Parmesan,Faridabad,italian,1000,3,4.5,799,28.3950766,77.3236479,high,4.5
18219542,Briosca,Faridabad,bakery,400,1,3.6,62,28.3952798,77.3234235,medium,3.6
18355112,Burger Point,Faridabad,burger,300,1,3.5,24,28.3949736,77.3220773,low,3.5
18270895,Cafe Grub Up,Faridabad,cafe,900,2,3.8,134,28.395196,77.3235233,high,3.8
18313839,Cakes At Bhawanas,Faridabad,bakery,400,1,3.5,26,28.393261,77.317231,medium,3.5
5005,Chaudhary Bhojnalaya,Faridabad,north indian,400,1,3.6,93,28.3953389,77.3240517,medium,3.6
1820,Chickenette,Faridabad,raw meats,650,2,3.7,280,28.3951035,77.3244107,medium,3.7
3863,Giani,Faridabad,ice cream,400,1,3.6,70,28.3951385,77.3216428,medium,3.6
9814,Green Chick Chop,Faridabad,raw meats,350,1,3.5,31,28.3951932,77.3244107,medium,3.5
18474912,Hash Stix,Faridabad,fast food,250,1,3.6,25,28.39483205,77.32343964,low,3.6
18161568,Juice On Go,Faridabad,juices,150,1,3.5,18,28.39527358,77.32328642,low,3.5
18416829,Keventers,Faridabad,beverages,400,1,3.6,27,28.3947688,77.3218081,medium,3.6
18400756,MD's Kebabs & Curries,Faridabad,north indian,750,2,3.8,27,28.395283,77.3244107,high,3.8
301177,Perfect Bake,Faridabad,bakery,400,1,3.5,39,28.43002333,77.29659833,medium,3.5
6161,Perfect Bake,Faridabad,bakery,400,1,3.6,126,28.3952545,77.3231543,medium,3.6
2565,Sethi's Delicacy,Faridabad,fast food,150,1,3.8,75,28.3950376,77.3244651,low,3.8
3866,Subway,Faridabad,american,500,2,3.5,143,28.3948264,77.3219427,medium,3.5
18250288,Cafí© Bogchi,Faridabad,cafe,650,2,4.1,153,28.39572041,77.32380275,medium,4.1
1430,Ashoka Restaurant,Faridabad,north indian,400,1,2.9,43,28.4104693,77.3203273,medium,2.9
18393702,Baskin Robbins,Faridabad,ice cream,300,1,2.9,4,28.4107707,77.3201927,low,2.9
6152,China Hot Pot,Faridabad,chinese,400,1,2.5,25,28.4106963,77.3192063,medium,2.5
306962,Handi Chhadeyan Di,Faridabad,north indian,400,1,3.1,26,28.4106593,77.3185323,medium,3.1
18445360,Hungrill,Faridabad,north indian,500,2,3.0,4,28.4108198,77.3190765,medium,3.0
6150,Kant Khana Khazana,Faridabad,north indian,250,1,3.4,22,28.4106772,77.318667,low,3.4
18421024,Open Yard,Faridabad,north indian,800,2,3.3,14,28.4095652,77.3199015,high,3.3
18471260,Recipe Badshah,Faridabad,north indian,300,1,3.1,8,0.0,0.0,low,3.1
18367316,The Chai Cafe,Faridabad,cafe,400,1,3.1,8,28.4108878,77.3185772,medium,3.1
18466931,Apna Restaurant,Faridabad,north indian,400,1,0.0,0,28.4105451,77.3190262,medium,0.0
18466420,Chaudhary Chaap & Chinese,Faridabad,chinese,300,1,0.0,0,28.4106649,77.3187017,low,0.0
18464607,Chings Chinese,Faridabad,chinese,300,1,0.0,0,28.4118307,77.3200132,low,0.0
18464631,Food On Wheels,Faridabad,chinese,300,1,0.0,0,28.4120355,77.3202824,low,0.0
301170,Gulshan Hotel,Faridabad,north indian,250,1,0.0,2,28.4104693,77.3203273,low,0.0
18466939,Maa Kali Foods,Faridabad,chinese,250,1,0.0,0,28.4104999,77.3196991,low,0.0
18380180,The Street Kitchen,Faridabad,north indian,400,1,0.0,0,28.4107084,77.3185772,medium,0.0
18466407,United Kitchen,Faridabad,fast food,500,2,0.0,0,28.4120254,77.3189708,medium,0.0
304001,Eat N Treat,Faridabad,chinese,400,1,2.8,20,28.4101024,77.3266023,medium,2.8
8319,Hotel Ekant,Faridabad,north indian,700,2,2.7,39,28.4101795,77.329167,medium,2.7
303871,Momo-Cha,Faridabad,north indian,600,2,2.7,56,28.4106029,77.3288978,medium,2.7
8321,Paradise Inn,Faridabad,north indian,500,2,2.7,43,28.4103725,77.3275764,medium,2.7
311047,Red Chilli,Faridabad,chinese,300,1,2.8,9,28.4099515,77.326744,low,2.8
8320,Shiv Restaurant,Faridabad,north indian,400,1,2.7,20,28.4101647,77.3278324,medium,2.7
8308,Sohan Sweets & Namkeen,Faridabad,mithai,100,1,3.2,41,28.4103306,77.3279106,low,3.2
18303717,The Binge Box Cafe,Faridabad,cafe,500,2,3.4,18,28.4105998,77.3279106,medium,3.4
304004,Tmos Moving Feast,Faridabad,chinese,700,2,3.3,76,28.4101156,77.32609671,medium,3.3
18472625,Tmos Cafe Corner,Faridabad,cafe,700,2,0.0,1,28.409801,77.326227,medium,0.0
18420432,Parkash Dhaba,Faridabad,north indian,200,1,3.0,6,28.417529,77.3138205,low,3.0
9824,Sanjha Chulha,Faridabad,north indian,700,2,3.3,219,28.4175882,77.3144487,medium,3.3
8029,Hareram Bikanerzaika,Faridabad,mithai,200,1,2.8,11,28.4304159,77.2969594,low,2.8
312788,Kulcha Paaji,Faridabad,street food,100,1,3.1,12,28.4317132,77.2967664,low,3.1
309672,Shree Bikaner Misthan Bhandar,Faridabad,street food,350,1,2.8,13,28.4301217,77.2964432,medium,2.8
18359861,"The Hub - Gourmet, Bakers & More",Faridabad,bakery,200,1,3.0,7,0.0,0.0,low,3.0
18439547,Anand Dhaba,Faridabad,north indian,200,1,0.0,1,28.4298355,77.2963379,low,0.0
18241538,Bikaneri Sweets & Restaurant,Faridabad,mithai,250,1,0.0,0,0.0,0.0,low,0.0
18452730,Delicieux Ice Cream Rolls,Faridabad,ice cream,400,1,0.0,1,28.4300562,77.2969354,medium,0.0
18317486,Flying Tandoor,Faridabad,north indian,300,1,0.0,3,28.4221037,77.291919,low,0.0
18432933,Food Station,Faridabad,north indian,400,1,0.0,0,0.0,0.0,medium,0.0
18452267,Grub Hub,Faridabad,asian,500,2,0.0,1,28.4296999,77.2964494,medium,0.0
18466980,Punjabi Chulha,Faridabad,north indian,300,1,0.0,3,28.4298396,77.2965369,low,0.0
18469937,Purani Dilli Da Swad,Faridabad,street food,100,1,0.0,2,28.4301909,77.2966226,low,0.0
18466937,The BBQ Garden,Faridabad,north indian,700,2,0.0,0,0.0,0.0,medium,0.0
18433879,The Chaiwalas,Faridabad,cafe,300,1,0.0,0,28.4263417,77.3002223,low,0.0
18369105,Funk House Cafe,Faridabad,cafe,650,2,2.6,15,28.43892133,77.31297973,medium,2.6
18133473,Shiksha Fast Food,Faridabad,fast food,200,1,2.9,5,28.4353341,77.315069,low,2.9
18458540,Hungry Head,Faridabad,street food,200,1,0.0,0,28.4353375,77.3150688,low,0.0
18482753,Tandoori Hut,Faridabad,north indian,400,1,0.0,0,0.0,0.0,medium,0.0
8167,Lalit Kathi Rolls Momos,Faridabad,fast food,100,1,3.1,9,28.4334516,77.3211256,low,3.1
18463990,Tamasha In Tafree,Faridabad,cafe,600,2,0.0,3,28.4334249,77.3212535,medium,0.0
18353030,Oh My!,Faridabad,chinese,300,1,0.0,2,0.0,0.0,low,0.0
18420465,Butter & Grace,Faridabad,north indian,700,2,3.1,7,28.446933,77.309147,medium,3.1
309656,Green Chick Chop,Faridabad,raw meats,350,1,3.1,9,28.4465451,77.317127,medium,3.1
305235,Snacks Bar,Faridabad,chinese,350,1,2.9,4,28.4452616,77.315795,medium,2.9
309654,Ahata,Faridabad,north indian,500,2,0.0,1,28.44589444,77.31723889,medium,0.0
18480389,Fritrolla,Faridabad,desserts,300,1,0.0,0,0.0,0.0,low,0.0
18446428,KitchenYard,Faridabad,north indian,300,1,0.0,0,0.0,0.0,low,0.0
4462,Meghansh Bakery,Faridabad,bakery,200,1,0.0,2,28.4466361,77.3170515,low,0.0
18469962,Oh My !,Faridabad,north indian,300,1,0.0,1,28.4549967,77.3159508,low,0.0
18380284,The Dark Hour - Kitchen,Faridabad,italian,350,1,0.0,1,0.0,0.0,medium,0.0
1414,Anupama Sweets & Family Restaurant,Faridabad,mithai,400,1,2.7,28,28.4718644,77.3149118,medium,2.7
304112,Shree Rathnam,Faridabad,south indian,800,2,2.7,29,28.471413,77.3107195,high,2.7
18472443,Bikaner Misthan Bhandar,Faridabad,mithai,150,1,0.0,0,28.471302,77.3108138,low,0.0
18456807,King's Kitchen,Faridabad,north indian,400,1,0.0,1,28.471302,77.3108138,medium,0.0
18471284,Muradabadi Chicken Biryani Corner,Faridabad,mughlai,500,2,0.0,0,28.4749127,77.3060306,medium,0.0
18471328,The Black Kettle,Faridabad,fast food,100,1,0.0,0,28.4711559,77.3105616,low,0.0
18204478,Desi Tadka,Faridabad,north indian,500,2,3.0,6,28.48429689,77.30693936,medium,3.0
18444264,Destination Live,Faridabad,north indian,500,2,3.3,12,28.4807864,77.3062811,medium,3.3
9224,Kay's Bake Land,Faridabad,bakery,150,1,3.1,19,28.480381,77.3116575,low,3.1
8054,Kay's Food Land,Faridabad,bakery,100,1,3.1,14,28.4805482,77.3104099,low,3.1
304114,Laziz Restaurant,Faridabad,north indian,600,2,2.8,11,28.48426667,77.30677778,medium,2.8
1413,Le Chef Restro Bar,Faridabad,north indian,1000,3,2.7,70,28.480467,77.3104996,high,2.7
1715,Republic of Chicken,Faridabad,raw meats,400,1,3.1,18,28.4805821,77.3107689,medium,3.1
4464,Tanishka Restaurant & Caterers,Faridabad,north indian,300,1,2.9,14,28.4805517,77.3113972,low,2.9
5010,The Tandoori Times,Faridabad,north indian,500,2,2.7,48,28.4804188,77.3115506,medium,2.7
301127,Twist of Italy,Faridabad,chinese,350,1,3.6,52,28.4807634,77.3109543,medium,3.6
9233,Aggarwal Sweets And Caterers,Faridabad,mithai,100,1,0.0,1,28.48420819,77.3066403,low,0.0
18471246,Biryani Bot,Faridabad,biryani,200,1,0.0,0,28.4805778,77.311746,low,0.0
18446082,Cafí© Kitchen,Faridabad,north indian,300,1,0.0,0,28.4808293,77.3114869,low,0.0
18396398,Evergreen Sweets & Restaurant,Faridabad,north indian,400,1,0.0,2,28.4803991,77.3106046,medium,0.0
18471244,Magic Spice Wok,Faridabad,chinese,300,1,0.0,0,28.4806939,77.3113363,low,0.0
18367078,Magical Momos,Faridabad,chinese,350,1,0.0,0,28.4806379,77.3104099,medium,0.0
18469976,Sam's Bake Shop,Faridabad,bakery,200,1,0.0,1,28.4808985,77.3103201,low,0.0
18381643,Shri Bikaner Misthan Bhandar,Faridabad,mithai,100,1,0.0,0,28.4773757,77.3092797,low,0.0
18471327,Tasty Dhaba Family Restaurant,Faridabad,north indian,400,1,0.0,0,28.474531,77.3060567,medium,0.0
18469936,U & I,Faridabad,north indian,500,2,0.0,0,28.4807304,77.3056065,medium,0.0
18433895,Cravings,Faridabad,north indian,500,2,3.0,4,28.46626355,77.28759091,medium,3.0
313089,Evergreen Tandoori Night,Faridabad,north indian,550,2,0.0,3,28.46191014,77.28919957,medium,0.0
18349251,Prelibato,Faridabad,italian,400,1,0.0,0,0.0,0.0,medium,0.0
18344478,Aravali Owls,Faridabad,north indian,600,2,0.0,0,0.0,0.0,medium,0.0
18089775,Chicken Inn Family Meat Shop,Faridabad,raw meats,300,1,0.0,1,28.46118611,77.30027778,low,0.0
18424179,Mother's Kitchen,Faridabad,north indian,300,1,0.0,0,0.0,0.0,low,0.0
309632,Domino's Pizza,Faridabad,pizza,700,2,2.9,10,28.4609554,77.3001795,medium,2.9
312874,Green Chick Chop,Faridabad,raw meats,350,1,3.1,5,28.460556,77.2886873,medium,3.1
18107870,Punjabi Culture,Faridabad,north indian,500,2,2.9,4,28.4622059,77.2978395,medium,2.9
18237362,Three Olives,Faridabad,italian,550,2,2.9,4,28.46227858,77.30083365,medium,2.9
18277177,Aggarwal's Bikaner Mishthan Bhandar,Faridabad,mithai,100,1,0.0,0,28.46117,77.2847783,low,0.0
18345740,Aravalli Owls,Faridabad,north indian,400,1,0.0,0,0.0,0.0,medium,0.0
18472651,Chatny Delight,Faridabad,fast food,100,1,0.0,1,28.4621065,77.2988233,low,0.0
313076,Harmann Restaurant,Faridabad,north indian,350,1,0.0,3,28.46681111,77.29056667,medium,0.0
18380159,Kulcha King,Faridabad,north indian,100,1,0.0,2,28.4601453,77.2845595,low,0.0
18377907,Royal Bakers,Faridabad,bakery,200,1,0.0,0,28.4614258,77.2999207,low,0.0
18292444,Touch of Spice,Faridabad,chinese,600,2,0.0,0,28.46210674,77.29738433,medium,0.0
307084,Hunger Cure,Faridabad,fast food,700,2,3.2,47,28.4376977,77.2983871,medium,3.2
305618,Sanjha Chulha,Faridabad,north indian,700,2,2.5,79,28.4375489,77.2983353,medium,2.5
307803,Queens Cakes,Faridabad,bakery,200,1,3.5,29,28.4370903,77.2984265,low,3.5
18419654,Sri Meenakshi South Indian Food,Faridabad,south indian,250,1,0.0,1,28.4375707,77.2990075,low,0.0
18471285,Sardar A Pure Meat Shop,Faridabad,raw meats,150,1,0.0,0,28.3959758,77.2670505,low,0.0
313040,Invitation Restaurant,Faridabad,north indian,500,2,2.7,17,28.363238,77.3239171,medium,2.7
17982346,Kaushik Bakery,Faridabad,bakery,200,1,3.0,9,28.3632142,77.3241415,low,3.0
18204501,Rama Vaishnav Bhojnalaya,Faridabad,north indian,250,1,3.0,7,28.3638989,77.3259973,low,3.0
1823,Shiv Saras Vyanjan,Faridabad,mithai,100,1,2.9,5,28.3691677,77.3282696,low,2.9
6143,Shree Bikaner Misthan Bhandar,Faridabad,mithai,300,1,3.0,8,28.36942587,77.32705828,low,3.0
8297,Shree Bikaner Misthan Bhandar,Faridabad,mithai,150,1,3.1,15,28.3633036,77.3264093,low,3.1
8318,Standard Family Restaurant,Faridabad,north indian,450,1,2.9,16,28.3633487,77.3260374,medium,2.9
18458631,The Hunger End,Faridabad,north indian,500,2,3.0,4,28.3686544,77.3285388,medium,3.0
18382355,Pizza Express,Faridabad,pizza,400,1,0.0,1,28.3630576,77.3262953,medium,0.0
312842,Anupam Sweets & Restaurant,Faridabad,north indian,450,1,3.0,10,28.4087438,77.3396661,medium,3.0
312084,Caramel,Faridabad,north indian,600,2,2.9,9,28.40775168,77.33637929,medium,2.9
18247033,Chaska Restaurant,Faridabad,north indian,650,2,3.2,24,28.4086778,77.3364513,medium,3.2
18126118,Club Pizzeria,Faridabad,pizza,550,2,3.4,19,28.4085728,77.3397558,medium,3.4
18429393,Gupha,Faridabad,north indian,500,2,2.9,8,28.41226833,77.34231301,medium,2.9
18241905,Indian Gourmet,Faridabad,north indian,450,1,3.0,8,28.4081056,77.3409272,medium,3.0
18425750,Tandoori Zaaika's,Faridabad,north indian,500,2,3.2,39,28.4102194,77.336292,medium,3.2
18261694,TCD Cake & Bake,Faridabad,bakery,300,1,3.1,10,28.4098256,77.3372048,low,3.1
18365998,The Grill Darbar,Faridabad,north indian,500,2,3.3,17,28.4080574,77.33666,medium,3.3
18273572,Urban Cuisine,Faridabad,north indian,500,2,3.4,37,28.4080719,77.3409826,medium,3.4
18363078,Mister Mughal,Faridabad,mughlai,600,2,3.5,33,28.4067402,77.3423218,medium,3.5
18356019,The Hub,Faridabad,bakery,200,1,3.1,9,28.3765371,77.3315619,low,3.1
312688,Bake Your Dreamz,Faridabad,bakery,800,2,0.0,3,0.0,0.0,high,0.0
18381668,Green Chilly Chinese Food,Faridabad,chinese,300,1,0.0,2,28.3764571,77.3328117,low,0.0
18287397,Mom's Kitchen,Faridabad,north indian,450,1,0.0,1,28.3763294,77.3299747,medium,0.0
18294253,The Baking Treats N More,Faridabad,bakery,300,1,0.0,0,0.0,0.0,low,0.0
18471304,Twin Brothers,Faridabad,fast food,150,1,0.0,0,28.3865773,77.3167822,low,0.0
8026,Aggarwal Sweets Centre,Faridabad,mithai,100,1,2.9,4,28.4997177,77.2899232,low,2.9
18265697,Bawarchi,Faridabad,north indian,550,2,3.0,14,28.49820594,77.29385857,medium,3.0
307151,D ART of Flavour,Faridabad,north indian,500,2,2.8,13,28.4982147,77.2937593,medium,2.8
18107844,Italia Cafe by Aura,Faridabad,fast food,400,1,2.8,5,28.5000937,77.2903929,medium,2.8
18337896,Pizza Street,Faridabad,fast food,550,2,2.6,12,28.50064,77.2903,medium,2.6
18261699,Rock Cafe,Faridabad,north indian,550,2,3.0,8,28.4727738,77.2869976,medium,3.0
18306531,Sardaar Ji Chaap & Rolls,Faridabad,north indian,300,1,3.1,7,28.49916279,77.2896526,low,3.1
303571,Spice Wok,Faridabad,north indian,600,2,3.1,18,28.4992231,77.2930411,medium,3.1
8099,Vrindavan Sweets & Restaurant,Faridabad,north indian,350,1,3.0,22,28.5002348,77.2902208,medium,3.0
18477428,Yummy Cake,Faridabad,bakery,400,1,3.0,4,0.0,0.0,medium,3.0
8037,Bikaner Sweets & Bakers,Faridabad,mithai,100,1,0.0,0,28.4938048,77.2940734,low,0.0
18471308,Burger Xpress,Faridabad,fast food,300,1,0.0,0,28.4989698,77.2921516,low,0.0
18471318,Da Pizza Zone,Faridabad,italian,500,2,0.0,0,28.4990357,77.2918806,medium,0.0
18471320,Finger Licious,Faridabad,fast food,300,1,0.0,0,28.4609284,77.2846781,low,0.0
18460293,Med E Taste,Faridabad,mediterranean,500,2,0.0,3,28.4609545,77.2847168,medium,0.0
18446418,Punjabii Tandoor,Faridabad,north indian,500,2,0.0,3,28.462227,77.2997286,medium,0.0
9496,Shankar Sweets,Faridabad,mithai,100,1,0.0,0,28.49710833,77.29654722,low,0.0
312967,Tasty Bites,Faridabad,south indian,200,1,0.0,2,28.4997138,77.2899124,low,0.0
18449815,The Street- Curries & Grills,Faridabad,north indian,600,2,0.0,1,28.489496,77.290565,medium,0.0
2680,Bakers Delight - The Atrium,Faridabad,bakery,700,2,3.0,10,28.489796,77.283011,medium,3.0
2679,On The Rocks - The  Atrium,Faridabad,finger food,1400,3,3.1,18,28.489796,77.283011,high,3.1
8417,World Cafe - Vibe by The LaLiT Traveller,Faridabad,north indian,1900,3,3.3,56,28.4729124,77.3060732,high,3.3
309757,Chaudhary Ke Mashhoor Paranthe,Ghaziabad,north indian,150,1,2.8,14,28.63601389,77.37444167,low,2.8
307903,Thakur Bakers,Ghaziabad,bakery,150,1,3.0,6,28.63602222,77.37419167,low,3.0
313502,FoodByMom,Ghaziabad,north indian,300,1,3.6,161,28.635083,77.369326,low,3.6
18409175,Mr. Brown,Ghaziabad,fast food,500,2,3.9,52,28.637449,77.378751,medium,3.9
18456342,Mitalis Kitchen,Ghaziabad,north indian,350,1,0.0,1,28.63823809,77.31548297,medium,0.0
18244229,The Big Scoop,Ghaziabad,ice cream,250,1,0.0,0,28.6411332,77.31069862,low,0.0
300713,9 Mars Lounge,Ghaziabad,north indian,2500,4,2.5,184,28.63423199,77.36989718,high,2.5
8623,Barista,Ghaziabad,cafe,650,2,3.4,33,28.63404167,77.37024722,medium,3.4
1318,Baskin Robbins,Ghaziabad,ice cream,300,1,3.3,27,28.63392778,77.3704,low,3.3
311523,Burger King,Ghaziabad,burger,500,2,3.4,327,28.63388299,77.36986466,medium,3.4
8590,Cafe Coffee Day,Ghaziabad,cafe,450,1,3.2,63,28.63404722,77.37020833,medium,3.2
8583,Chinese X'Press,Ghaziabad,chinese,600,2,2.9,16,28.63388299,77.36986466,medium,2.9
300756,Cinch,Ghaziabad,north indian,1500,3,2.6,92,28.63412753,77.36972552,high,2.6
4239,Costa Coffee,Ghaziabad,cafe,600,2,3.3,60,28.634123,77.370576,medium,3.3
18168161,Domino's Pizza,Ghaziabad,pizza,700,2,3.2,17,28.63407809,77.36981537,medium,3.2
18381223,Dosa X'press,Ghaziabad,south indian,500,2,3.0,6,28.63378764,77.36972786,medium,3.0
18034077,Kebab Xpress,Ghaziabad,north indian,600,2,2.7,14,28.63383826,77.36959241,medium,2.7
3824,Let's Noodle,Ghaziabad,chinese,700,2,2.6,181,28.63421758,77.36971814,medium,2.6
2572,McDonald's,Ghaziabad,fast food,500,2,3.3,150,28.63401924,77.37036925,medium,3.3
8595,Mx Corn,Ghaziabad,fast food,100,1,3.1,7,28.63431586,77.36987706,low,3.1
309702,Dunkin' Donuts,Ghaziabad,burger,600,2,3.6,252,28.634175,77.37019444,medium,3.6
8601,Haldiram's,Ghaziabad,north indian,600,2,3.6,187,28.6339389,77.37023715,medium,3.6
1683,Pind Balluchi,Ghaziabad,north indian,1000,3,1.8,322,28.63397039,77.37016473,high,1.8
301670,Maini Restaurant,Ghaziabad,north indian,400,1,3.3,114,28.6698582,77.3252184,medium,3.3
17953902,The Dosa King,Ghaziabad,south indian,550,2,3.2,80,28.6644658,77.3231543,medium,3.2
130409,Baba Au Rhum,Goa,italian,800,3,4.5,280,15.57668259,73.75574991,high,4.5
130275,Burger Factory,Goa,fast food,1100,4,4.8,415,15.58565833,73.74360556,high,4.8
130332,Club Cubana,Goa,finger food,2000,4,4.4,646,15.57482778,73.76688333,high,4.4
130230,Curlies,Goa,continental,1500,4,3.5,1681,15.5696,73.74229444,high,3.5
16519268,La Plage,Goa,seafood,800,3,4.6,302,0.0,0.0,high,4.6
16512186,St. Anthony's,Goa,north indian,1100,4,3.8,911,15.56155,73.74909167,high,3.8
16512333,Britto's Bar & Restaurant,Goa,north indian,1400,4,4.3,2191,15.56129549,73.74947806,high,4.3
16512336,Fat Fish,Goa,north indian,1000,4,4.2,856,15.55656111,73.76363333,high,4.2
16519168,Martin's Corner,Goa,goan,1600,4,4.4,1115,15.30389722,73.91433611,high,4.4
130021,Infantaria,Goa,italian,800,3,3.7,1221,15.54659444,73.76043056,high,3.7
130567,Souza Lobo,Goa,north indian,1300,4,4.3,918,15.54441944,73.75573611,high,4.3
130008,Fisherman's Cove,Goa,goan,700,3,3.8,601,15.51683333,73.76817222,medium,3.8
16519267,Calamari,Goa,goan,800,3,4.2,414,15.5062047,73.7666682,high,4.2
130535,The Fisherman's Wharf,Goa,continental,1100,4,4.6,555,15.15794444,73.95088889,high,4.6
